ID,NAME,POP 2010,LATITUDE,LONGITUDE
1,Frederiksted,-999,17.7124746,-64.8815352
2,Christiansted,-999,17.7466397,-64.7031977
3,Central Aguirre,1301,17.9535782,-66.222945
4,Jobos,2479,17.9552449,-66.1654442
5,Arroyo,6396,17.9658005,-66.0612756
6,Santa Isabel,5976,17.9660775,-66.404892
7,Jauca,1529,17.9691331,-66.3657246
8,Gu_nica,7254,17.971633,-66.9079537
9,Coqu_,3293,17.9741328,-66.2271118
10,Pole Ojea,1695,17.9749646,-67.1851793
11,La Parguera,1044,17.9749654,-67.0465664
12,Salinas,4771,17.9774659,-66.297946
13,El Combate,423,17.9782977,-67.2121242
14,Mar_a Antonia,1285,17.9787449,-66.888664
15,Lamboglia,1050,17.9813556,-65.9857188
16,Guayama,22691,17.9841328,-66.1137767
17,Las Ochenta,951,17.984688,-66.3179461
18,Playita Cortada,1731,17.9849653,-66.4390594
19,Palmas,2230,17.9871886,-66.0254417
20,Fuig,1110,17.9877435,-66.9160095
21,Potala Pastillo,3092,17.9913537,-66.4965608
22,Coraz_n,2131,17.9927436,-66.0848873
23,Indios,1484,17.9941326,-66.8193421
24,Tallaboa,925,17.9949661,-66.7162855
25,Buena Vista,1660,17.9963547,-66.0518311
26,Parcelas Pe_uelas,941,17.9988539,-66.3412797
27,Emajagua,2857,18.0005224,-65.8826621
28,Olimpo,2064,18.0019099,-66.1082211
29,El Ojo,1478,18.0038537,-66.3915585
30,El Tumbao,2511,18.004965,-66.8998984
31,Patillas,4333,18.0063544,-66.0157194
32,Coco,5758,18.0071869,-66.2593344
33,Maunabo,1668,18.0071885,-65.8993289
34,Palo Seco,1008,18.0074659,-65.9368293
35,Calzada,191,18.0082987,-66.5668388
36,Maguayo,903,18.0102415,-67.0835115
37,Ponce,132502,18.0110768,-66.6140616
38,Palomas,1936,18.013576,-66.8732316
39,Magas Arriba,1215,18.0174648,-66.7690639
40,Guayanilla,3949,18.0191314,-66.791842
41,Mariano Col_n,2240,18.0232974,-66.3323909
42,Aguilita,4747,18.0232976,-66.5346166
43,Boquer_n,2023,18.0269067,-67.169068
44,Yaurel,1050,18.026909,-66.0571092
45,Betances,876,18.0285736,-67.1349009
46,Pueblito del Carmen,572,18.031545,-66.1655767
47,Las Ollas,1557,18.0330192,-66.4243372
48,Piedra Aguza,2901,18.0338531,-66.4949382
49,Yauco,17186,18.034964,-66.8498983
50,El Negro,1075,18.0374654,-65.8512729
51,Quebrada del Agua,1325,18.0379017,-66.6845708
52,R_o Ca_as Abajo,1038,18.0382968,-66.4676716
53,Lluveras,1733,18.0382969,-66.9046209
54,Liborio Negr_n Torres,1112,18.0430954,-66.9428012
55,Playita,1558,18.0446869,-65.9073847
56,La Plena,865,18.0466298,-66.2046116
57,Coto Laurel,3047,18.0496857,-66.5512835
58,Lajas,4586,18.049962,-67.059345
59,Yabucoa,6047,18.0505201,-65.8793288
60,Tallaboa Alta,1816,18.0510743,-66.7001742
61,Vayas,528,18.0521858,-66.5840615
62,Juana D_az,7916,18.0524629,-66.5065611
63,Los Llanos,2118,18.0552406,-66.4057259
64,Pe_uelas,5859,18.0563518,-66.7215633
65,Luis Llor_ns Torres,2912,18.0565439,-66.526735
66,Rosa S_nchez,1055,18.0597925,-65.909286
67,Santo Domingo,3156,18.063296,-66.7523972
68,El Paraiso,1716,18.0648412,-66.602092
69,Cerrillos Hoyos,748,18.0654893,-66.5690549
70,V_zquez,1890,18.0657957,-66.238501
71,Palmarejo,1090,18.0680177,-66.3254467
72,La Yuca,665,18.0727343,-66.607733
73,Puerto Real,5983,18.0749601,-67.1871243
74,Martorell,2232,18.0760744,-65.898218
75,Sabana Grande,8179,18.0777392,-66.9604549
76,Coamo,11522,18.0799617,-66.3579473
77,Corral Viejo,260,18.0799621,-66.6529511
78,Parcelas Mandry,571,18.0810426,-66.5627014
79,Guayabal,2036,18.0813507,-66.5012833
80,San Germ_n,10989,18.0816273,-67.0449008
81,Palmas del Mar,2055,18.0819088,-65.797939
82,Sabana Eneas,1576,18.0860714,-67.0810122
83,Cabo Rojo,9803,18.0866265,-67.1457347
84,Comunas,1900,18.0871855,-65.8437732
85,Monte Grande,2800,18.08746,-67.1074013
86,Tibes,362,18.0907636,-66.6323842
87,Candelero Abajo,598,18.0941674,-65.8164561
88,Esperanza,1219,18.0971868,-65.4707144
89,Monte Verde,137,18.0971876,-66.6195866
90,Candelero Arriba,1215,18.1019071,-65.8368288
91,Cayey,16680,18.1119051,-66.166
92,Buena Vista,1134,18.115518,-65.7982173
93,Pastos,1514,18.117738,-66.2587793
94,G. L. Garc_a,1751,18.125902,-66.1026079
95,Villalba,3384,18.1271824,-66.4921164
96,Anon Raices,287,18.1391575,-66.5865124
97,Hormigueros,12443,18.1396799,-67.1274019
98,Aibonito,8249,18.1399594,-66.2660016
99,Parcelas Nuevas,1579,18.1402372,-66.1723891
100,Vieques,1938,18.1474625,-65.4448811
101,Humacao,18629,18.1496828,-65.8273847
102,Bajandas,1309,18.1577384,-65.7815509
103,Jagual,1062,18.1616255,-65.9954419
104,Adjuntas,4406,18.1627363,-66.7221187
105,Punta Santiago,4964,18.1663493,-65.7482172
106,Parcelas la Milagrosa,1290,18.1715082,-66.1868477
107,Parcelas Viejas Borinquen,677,18.1738541,-66.0406197
108,La Fermina,2743,18.1755145,-65.8534963
109,Cidra,5109,18.1757914,-66.1612779
110,Maricao,868,18.1807902,-66.9799001
111,Las Piedras,5883,18.183014,-65.8662742
112,Barranquitas,2695,18.1866243,-66.3062802
113,Los Panes,267,18.1871075,-66.0762395
114,Ant_n Ru_z,1589,18.1882693,-65.8078813
115,San Lorenzo,8037,18.189402,-65.9609971
116,Rodr_guez Hevia,325,18.1924573,-66.170167
117,Mayag_ez,70463,18.201066,-67.139624
118,Naguabo,4443,18.2116247,-65.7348841
119,Pe_a Pobre,991,18.2155129,-65.8221074
120,Comer_o,4020,18.2180119,-66.2260012
121,R_o Blanco,1681,18.2182908,-65.7884959
122,Jayuya,2759,18.2185674,-66.5915617
123,Santa Clara,982,18.2185674,-66.1287777
124,Sumidero,-999,18.2185674,-66.1287777
125,Daguao,1604,18.2263463,-65.6832172
126,Orocovis,722,18.2269005,-66.3910037
127,Juncos,7564,18.2274558,-65.920997
128,Pueblito Del R_o,1310,18.2280217,-65.861566
129,Parcelas de Navarro,1568,18.2301054,-66.0041595
130,Los Prados,2129,18.233037,-66.062108
131,Caguas,82243,18.2341217,-66.0484989
132,El Mang_,1482,18.2341225,-65.879608
133,Duque,1320,18.2394011,-65.7504401
134,Hacienda San Jose,3531,18.2408967,-66.072085
135,Las Mar_as,806,18.2518983,-66.9921225
136,Aguas Claras,3006,18.252734,-65.6534952
137,Las Carolinas,2570,18.2541209,-66.0648881
138,Gurabo,7609,18.2543987,-65.9729421
139,Aguas Buenas,4204,18.2568989,-66.1029442
140,Bairoa,-999,18.2591206,-66.0404432
141,Bairoa La Vienticinco,399,18.2635667,-66.0214987
142,Ceiba,5633,18.2641226,-65.6484951
143,Utuado,8397,18.2655095,-66.7004519
144,Lomas,956,18.2685651,-65.908775
145,Celada,4081,18.2716202,-65.9659977
146,Ben_tez,1409,18.272533,-65.8788312
147,Espino,1270,18.2763407,-67.1193464
148,A_asco,5075,18.2827291,-67.1396245
149,La Playa,1900,18.2874507,-67.1868475
150,La Liga,281,18.2904606,-66.0494961
151,Cayuco,1120,18.2910639,-66.7393414
152,Lares,4917,18.2946746,-66.8771211
153,Naranjito,1655,18.3007861,-66.2448904
154,Luis M. Cintr_n,2290,18.3013841,-65.6378333
155,Culebra,1590,18.3030119,-65.3009914
156,Juncal,994,18.3138402,-66.9190661
157,Stella,1088,18.3218929,-67.2468473
158,Morovis,2032,18.325785,-66.4065592
159,Fajardo,28930,18.3257869,-65.6523838
160,Cruz Bay,-999,18.331343,-64.7937497
161,Ciales,2591,18.3360622,-66.4687823
162,San Sebasti_n,9622,18.3366166,-66.9901782
163,Campo Rico,3006,18.3371732,-65.8979419
164,Ramos,1821,18.3396747,-65.7126621
165,Fr_nquez,1948,18.3400704,-66.427623
166,Rinc_n,1456,18.3402252,-67.2499027
167,Corozal,10160,18.3410622,-66.3168357
168,Charlotte Amalie,-999,18.3419004,-64.9307007
169,H. Rivera Col_n,2456,18.3481999,-66.273292
170,Barahona,2469,18.3513393,-66.4454485
171,Trujillo Alto,48437,18.3546719,-66.0073876
172,Hato Arriba,676,18.3557821,-67.0340678
173,Quebrada,995,18.3566164,-66.8321206
174,Guaynabo,75443,18.3574502,-66.1109998
175,Bartolo,1311,18.361339,-65.8384971
176,Florida,4711,18.3624494,-66.5612836
177,Galateo,2585,18.3624501,-66.2587795
178,Luyando,2886,18.3643923,-67.1574031
179,Las Croabas,1053,18.3646741,-65.6259948
180,P_jaros,10122,18.3685609,-66.2168343
181,Palmer,1032,18.3705058,-65.7740519
182,Luquillo,7761,18.3724507,-65.7165511
183,Hato Candal,2055,18.3743944,-65.7871076
184,La Dolores,3081,18.3755049,-65.8557195
185,Can_vanas,7297,18.3782623,-65.9056191
186,Aguada,3212,18.3793913,-67.1882365
187,Playa Fortuna,1690,18.3796724,-65.7451628
188,R_o Grande,12677,18.380227,-65.8312749
189,Carolina,157832,18.3807819,-65.9573872
190,Pajonal,742,18.3821709,-66.5557279
191,Miranda,1804,18.3866158,-66.3837811
192,Toa Alta,3713,18.3882823,-66.2482237
193,Mucarabones,1561,18.3907821,-66.216001
194,San Isidro,6828,18.3921707,-65.8854421
195,Moca,3861,18.3946688,-67.1132356
196,R_o Lajas,2373,18.394671,-66.2676685
197,Santa B_rbara,4622,18.3951386,-65.9175508
198,La Alianza,1947,18.3974475,-66.6023952
199,San Jos_,2900,18.3982819,-66.2557238
200,Bayam_n,185996,18.3985595,-66.1557224
201,Rafael Cap_,1700,18.3997792,-66.7908004
202,Candelaria,16760,18.4041147,-66.2087786
203,Vega Alta,10266,18.4121703,-66.3312805
204,Candelaria Arenas,4818,18.4171697,-66.2173898
205,B_falo,949,18.4174168,-66.574928
206,Campanilla,6868,18.4213363,-66.2368345
207,Rafael Gonz_lez,2303,18.42639,-66.787123
208,Bajadero,3710,18.4266134,-66.6832302
209,Sabana Seca,9705,18.4268914,-66.1846115
210,Aguadilla,13310,18.4274454,-67.1540698
211,Manat_,14011,18.4274472,-66.4921159
212,Su_rez,1931,18.4302244,-65.8534974
213,Coto Norte,1604,18.4307804,-66.4398929
214,Lo_za,3875,18.4313354,-65.8801645
215,Tiburones,1616,18.4316132,-66.5807283
216,Sabana Hoyos,1783,18.4338352,-66.6137846
217,Piedra Gorda,1937,18.4341129,-66.8876774
218,Cacao,1001,18.4366125,-66.9371226
219,Monserrate,2592,18.4366136,-66.3596141
220,Imb_ry,3899,18.4370825,-66.5564848
221,Cata_o,28140,18.4413351,-66.1182218
222,Ingenio,5354,18.4421686,-66.226001
223,Aceitunas,1436,18.4432783,-67.0649026
224,Toa Baja,1513,18.4438353,-66.2596126
225,Vega Baja,25905,18.4443909,-66.38767
226,Cab_n,3334,18.4448321,-67.1357037
227,Animas,1203,18.4455016,-66.6348964
228,San Antonio,7574,18.4488351,-66.302669
229,La Luisa,2590,18.4488352,-66.5098939
230,Levittown,26960,18.4499458,-66.1815558
231,Barceloneta,3785,18.4505017,-66.5385055
232,Alianza,2569,18.4516123,-66.85351
233,Garrochales,1086,18.453557,-66.5662837
234,Corcovado,1405,18.4585569,-66.7762868
235,Dorado,13258,18.4588347,-66.2676683
236,Sabana,1630,18.4607792,-66.358503
237,Tierras Nuevas Poniente,3228,18.4618902,-66.4885047
238,Mora,1583,18.4629997,-67.0326798
239,San Juan,381931,18.4663338,-66.1057217
240,Rafael Hern_ndez,1351,18.4718548,-67.078585
241,Arecibo,44191,18.472445,-66.7157306
242,Bre_as,3373,18.4732986,-66.3346087
243,Quebradillas,5282,18.473833,-66.938512
244,Carrizales,2738,18.4818891,-66.7898983
245,Camuy,3704,18.4838331,-66.8448994
246,Hatillo,4439,18.4863331,-66.8254545
247,Isabela,11255,18.500776,-67.0243462
248,Na'alehu,866,19.0698268,-155.5750969
249,Honu_apo,-999,19.089495,-155.5487251
250,Punalu_u,-999,19.1369532,-155.5046028
251,Miloli_i,-999,19.18603,-155.90621
252,Pahala,1356,19.1994246,-155.4792836
253,Kalapana,-999,19.35245,-154.98005
254,Volcano,2575,19.4277439,-155.2346706
255,Opihikao,-999,19.4280706,-154.8819813
256,Glenwood,-999,19.4878132,-155.1513612
257,Pahoa,945,19.4961067,-154.9454525
258,Captain Cook,3429,19.4969444,-155.9216667
259,Honalo,2423,19.542441,-155.9286547
260,Keauhou,-999,19.56064,-155.96226
261,Kea'au,2253,19.6155627,-155.037204
262,Holualoa,8538,19.6230029,-155.9314174
263,Kailua,11975,19.6392732,-155.9902382
264,Hilo,43263,19.722474,-155.0868273
265,Pauka'a,425,19.7624916,-155.0911939
266,Papa'ikou,1314,19.7918377,-155.0941142
267,Pepe'ekeo,1789,19.83171,-155.10438
268,Honomu,509,19.8694141,-155.1130486
269,Weloka,-999,19.9588884,-155.1984501
270,Puako,772,19.9715337,-155.8402061
271,Papa_aloa,-999,19.9751459,-155.2203147
272,Laupahoehoe,581,19.9760833,-155.23759
273,'O_okala,-999,20.0141608,-155.2841946
274,Waimea,9212,20.0230556,-155.6716667
275,Kawaihae,-999,20.0353877,-155.8264643
276,Pa'auilo,595,20.0397516,-155.3696679
277,Honoka'a,2258,20.0746345,-155.465712
278,Mahukona,-999,20.1840872,-155.9000198
279,Niuli_i,-999,20.2222876,-155.7442082
280,Hawi,1081,20.2391194,-155.8305517
281,Makena,99,20.6282536,-156.4283538
282,'Ulupalakua,-999,20.648688,-156.398234
283,Kipahulu,-999,20.6547099,-156.0552595
284,Wailea,5938,20.689732,-156.441899
285,Manele,29,20.7419746,-156.901169
286,Waiakoa,-999,20.7600466,-156.3277245
287,Kihei,20881,20.7633381,-156.4490059
288,Hana,1235,20.771608,-156.0084769
289,Kaumalapau,-999,20.7870085,-156.9893531
290,Ma'alaea,352,20.7995495,-156.4928946
291,Olowalu,80,20.8108616,-156.6215297
292,Lana'i City,3102,20.8279223,-156.9151814
293,Waikapu,2965,20.8391608,-156.5220386
294,Wailua,-999,20.8452164,-156.1326313
295,Makawao,7184,20.8493548,-156.316694
296,Hali'imaile,964,20.8670704,-156.3381346
297,Lahaina,11704,20.87429,-156.67663
298,Kahului,26337,20.8820295,-156.4735937
299,Wailuku,15313,20.8896075,-156.5010595
300,Pa'ia,2668,20.9094185,-156.3697409
301,Waiehu,-999,20.919034,-156.4946651
302,Ka'anapali,1045,20.9288894,-156.6833787
303,Waihe_e,-999,20.9308991,-156.5100288
304,Kahakuloa,-999,20.9959204,-156.5491676
305,Honokahua,-999,20.9984195,-156.6587305
306,Kamalo,-999,21.0502334,-156.8746422
307,Kalua_aha,-999,21.06664,-156.82061
308,Ualapu'e,425,21.0687049,-156.8354766
309,Kaunakakai,3425,21.0896357,-157.0173984
310,Maunaloa,376,21.132114,-157.2113204
311,Ho_olehua,-999,21.1675244,-157.0688081
312,Kalaupapa,-999,21.1894648,-156.9817693
313,Honolulu,-999,21.3069444,-157.8583333
314,Kapolei,15186,21.33371,-158.06562
315,Ko Olina,1799,21.3377742,-158.1186197
316,Waimanalo,5451,21.3420696,-157.7302386
317,'Ewa,-999,21.3441667,-158.0308333
318,Makakilo,18248,21.3469444,-158.0858333
319,Nanakuli,12666,21.38410238,-158.1425456
320,'Aiea,9338,21.3864663,-157.9231834
321,Waipahu,38216,21.3866667,-158.0091667
322,Kailua,38635,21.4022222,-157.7394444
323,Waikele,7479,21.402559,-158.0058019
324,Pearl City,47698,21.4039032,-157.9575535
325,Kane'ohe,34597,21.4087496,-157.7887943
326,Ma'ili,9488,21.414343,-158.1750842
327,Mililani,27629,21.4482285,-158.0141996
328,Wai'anae,13177,21.4528559,-158.1810603
329,Kahalu'u,4738,21.4580951,-157.8416971
330,Makaha,8278,21.4678487,-158.2163895
331,Wahiawa,17821,21.5003965,-158.019972
332,Waialua,3860,21.5733244,-158.1277657
333,Punalu'u,1164,21.5831963,-157.8900458
334,Hale'iwa,3970,21.5891723,-158.1077513
335,Hau'ula,4148,21.611233,-157.9091774
336,La'ie,6138,21.6453766,-157.9237604
337,Pupukea,4551,21.6483582,-158.06208
338,Pu_uwai,-999,21.900964,-160.2016711
339,Koloa,2144,21.9029601,-159.461075
340,Ele'ele,2390,21.9054346,-159.5819445
341,Hanapepe,2638,21.9133114,-159.587849
342,Kalaheo,4595,21.9159149,-159.5236211
343,Lawa'i,2363,21.9203941,-159.5006704
344,Waimea,1855,21.957069,-159.6689261
345,Kekaha,3537,21.9668608,-159.7118623
346,Lihu'e,6455,21.9729709,-159.3530838
347,Hanama'ulu,3835,21.9954675,-159.348372
348,Mana,-999,22.0358296,-159.76941
349,Wailua,2254,22.0492228,-159.3352206
350,Kapa'a,10699,22.07497003,-159.3181431
351,Anahola,2223,22.1422622,-159.3138837
352,Hanalei,450,22.2016937,-159.5031218
353,Kilauea,2803,22.210945,-159.3959362
354,Princeville,2158,22.2175824,-159.4788847
355,Ha'ena,431,22.2185038,-159.5610952
356,Key West,24649,24.5557025,-81.7825914
357,Summerland Key,-999,24.6656987,-81.4423048
358,Big Pine Key,4252,24.6698652,-81.353969
359,Marathon,8297,24.7137524,-81.0903512
360,Key Colony Beach,797,24.7209744,-81.0186827
361,Marathon Shores,-999,24.7256965,-81.0484058
362,Duck Key,621,24.7709723,-80.9120139
363,Layton,184,24.8240255,-80.8136783
364,Islamorada,6119,24.9242995,-80.6278404
365,Plantation Key,-999,24.98284451,-80.5487754
366,Tavernier,2136,25.0115186,-80.5150608
367,Key Largo,10433,25.0865151,-80.4472802
368,Flamingo,-999,25.1417914,-80.9253491
369,Florida City,11245,25.4478898,-80.4792237
370,Homestead,60512,25.4687224,-80.4775569
371,Leisure City,22655,25.4953878,-80.4292223
372,Naranja,8303,25.5181647,-80.4228333
373,Princeton,22038,25.5384417,-80.408944
374,Goulds,10103,25.5626072,-80.3822765
375,Cutler Bay,40286,25.5783,-80.3377
376,South Miami Heights,35696,25.597606,-80.3806096
377,Perrine,-999,25.6051055,-80.3536645
378,Palmetto Bay,23410,25.6217715,-80.3247748
379,Richmond Heights,8541,25.6314936,-80.3689426
380,Pinecrest,18223,25.6670476,-80.3081074
381,Kendall,75371,25.6792695,-80.3172743
382,Key Biscayne,12344,25.693713,-80.1628248
383,South Miami,11657,25.7076017,-80.2933846
384,Glenvar Heights,16898,25.7076018,-80.3256076
385,Coral Gables,46780,25.72149,-80.2683838
386,Westwood Lakes,11838,25.7237481,-80.3716518
387,Olympia Heights,13488,25.726768,-80.3553306
388,Ludlam,-999,25.7337119,-80.3014402
389,Westchester,29862,25.7548224,-80.3272741
390,West Miami,5965,25.7634331,-80.2961621
391,Sweetwater,13499,25.7634334,-80.3731086
392,Miami,399457,25.7742658,-80.1936589
393,Miami Beach,87779,25.790654,-80.1300455
394,Virginia Gardens,2375,25.8103758,-80.3022732
395,Chokoloskee,359,25.8128798,-81.3620233
396,Doral,45704,25.8195424,-80.3553302
397,Miami Springs,13809,25.8223198,-80.289495
398,Medley,838,25.8406526,-80.3264404
399,North Bay Village,7137,25.8462075,-80.1539351
400,El Portal,2325,25.8553739,-80.193103
401,Hialeah,224669,25.8575963,-80.2781057
402,Everglades,400,25.8576597,-81.3861568
403,Miami Shores,10493,25.8631515,-80.1928253
404,Hialeah Gardens,21744,25.8650961,-80.3244958
405,Indian Creek Village,86,25.8781508,-80.1361566
406,Surfside,5744,25.8784285,-80.1256007
407,Biscayne Park,3055,25.8825951,-80.1806025
408,Bay Harbor Islands,5628,25.8875948,-80.1311564
409,North Miami,58786,25.8900949,-80.1867138
410,Bal Harbour,2513,25.8917613,-80.1269896
411,Pennsuco,-999,25.8950952,-80.3781082
412,Ochopee,-999,25.9014871,-81.3034103
413,Brownsville,175023,25.9017472,-97.4974838
414,Opa-locka,15219,25.9023168,-80.2503271
415,Miami Lakes,29361,25.9087056,-80.3086619
416,Bunche Park,-999,25.9206495,-80.2369932
417,Goodland,267,25.9248211,-81.6456412
418,North Miami Beach,41523,25.9331488,-80.1625463
419,Marco Island,16413,25.9332355,-81.7009866
420,Miami Gardens,107167,25.9420377,-80.2456045
421,Sunny Isles Beach,20832,25.9506481,-80.1228227
422,Copeland,-999,25.9537075,-81.3559114
423,Aventura,35762,25.9564812,-80.1392121
424,Golden Beach,919,25.9650919,-80.1222671
425,Hallandale Beach,37113,25.9812025,-80.148379
426,San Pedro,530,25.9817456,-97.5963774
427,West Park,14156,25.984536,-80.1989362
428,Miramar,122041,25.9873137,-80.2322706
429,Pembroke Park,6102,25.9878691,-80.1747687
430,Jerome,-999,25.9973168,-81.3467442
431,Pembroke Pines,154750,26.0031465,-80.223937
432,Hollywood,140768,26.0112014,-80.1494901
433,West Hollywood,-999,26.0206457,-80.1839357
434,Olmito,1210,26.0217447,-97.5341534
435,Rancho Viejo,2437,26.0395222,-97.5563763
436,La Paloma,2903,26.0459111,-97.667491
437,Los Indios,1083,26.0492445,-97.7449935
438,Dania Beach,29639,26.052311,-80.1439343
439,Cooper City,28547,26.0573112,-80.271716
440,Southwest Ranches,7345,26.0587001,-80.3372733
441,Davie,91992,26.0628665,-80.2331038
442,Los Fresnos,5542,26.0717438,-97.4763733
443,Port Isabel,5006,26.0734119,-97.2085844
444,Bluetown,356,26.074244,-97.8230522
445,Santa Maria,733,26.0786883,-97.8494421
446,Laguna Heights,3488,26.0800784,-97.2538639
447,Relampago,132,26.0850771,-97.9186116
448,Hacienda Village,-999,26.0853655,-80.2011583
449,Naples Manor,5562,26.0887041,-81.7261977
450,Indian Lake,640,26.0892433,-97.5024853
451,Fern Crest Village,-999,26.0892543,-80.2192144
452,Rangerville,289,26.0897992,-97.7486046
453,Progreso,5507,26.0922991,-97.9572242
454,Riverland,-999,26.0939763,-80.1867133
455,Pine Island Ridge,-999,26.0948098,-80.2739383
456,Hidalgo,11198,26.1003547,-98.2630684
457,Weston,65333,26.1003654,-80.3997748
458,Laguna Vista,3117,26.1009111,-97.2902543
459,South Padre Island,2816,26.1036887,-97.1646938
460,Laureles,3692,26.1092429,-97.4941516
461,Fort Lauderdale,165521,26.1223084,-80.1433786
462,Plantation,84955,26.1275862,-80.2331036
463,Bayview,383,26.1286875,-97.3983143
464,Browardale,-999,26.1286972,-80.1925469
465,San Benito,24250,26.132576,-97.6311006
466,Sunrise,84439,26.1339746,-80.1130998
467,Granjeno,293,26.1347979,-98.3047363
468,East Naples,-999,26.1384247,-81.7664763
469,Lauderhill,66887,26.1403635,-80.2133808
470,Naples,19537,26.1420358,-81.7948103
471,Mercedes,15570,26.1497977,-97.9136112
472,La Feria,7302,26.1589644,-97.8238853
473,Weslaco,35670,26.1595195,-97.9908366
474,Wilton Manors,11632,26.1603626,-80.138934
475,Lauderdale Lakes,32593,26.1664736,-80.2083806
476,Sunrise,84439,26.16729736,-80.29498291
477,Donna,15798,26.1703525,-98.05195
478,Oakland Park,41363,26.1723065,-80.1319893
479,La Feria North,212,26.1778878,-97.8231565
480,Alamo,18353,26.1836854,-98.1230638
481,Golden Gate,23961,26.1878667,-81.6950853
482,San Juan,33856,26.1892409,-98.1552872
483,Lozano,404,26.1892413,-97.5410972
484,Harlingen,64849,26.1906306,-97.6961026
485,Villa del Sol,175,26.1914635,-97.574154
486,Lauderdale-by-the-Sea,6056,26.192028,-80.0964326
487,Pharr,70400,26.1947962,-98.1836216
488,Pompano Park,-999,26.1992502,-80.2083805
489,Abram,2067,26.1997957,-98.4111287
490,Palm Valley,1304,26.2017416,-97.7541602
491,Sea Ranch Lakes,670,26.2025831,-80.0939325
492,McAllen,129877,26.2034071,-98.2300124
493,Tamarac,60427,26.2128609,-80.2497707
494,Mission,77058,26.2159066,-98.3252932
495,North Alamo,3235,26.2172955,-98.1288974
496,North Lauderdale,41023,26.217305,-80.2258811
497,North Naples,-999,26.2192549,-81.7917542
498,Perezville,5376,26.2245173,-98.4005732
499,Primera,4070,26.2259079,-97.7580492
500,Penitas,4403,26.2306281,-98.4447412
501,Palmview,5460,26.233406,-98.3708503
502,Rio Hondo,2356,26.2353516,-97.5819319
503,Pompano Beach,99845,26.2378597,-80.1247667
504,Los Ebanos,335,26.2434051,-98.5616885
505,Margate,53284,26.2445263,-80.206436
506,Havana,407,26.245072,-98.5094655
507,La Joya,3985,26.2470165,-98.4814092
508,Combes,2895,26.2486851,-97.7338816
509,Coconut Creek,52909,26.2517482,-80.1789351
510,Santa Rosa,2873,26.2567401,-97.8249963
511,Palmhurst,2607,26.2584053,-98.3180711
512,Naples Park,5967,26.2617534,-81.8092543
513,Sunniland,-999,26.2692505,-81.3417428
514,La Grulla,1622,26.2695148,-98.6472456
515,Coral Springs,121096,26.271192,-80.2706044
516,Tierra Bonita,141,26.2714619,-97.8258298
517,Lighthouse Point,10344,26.275636,-80.0872654
518,Palm River,-999,26.2773082,-81.7761978
519,Sullivan City,4002,26.2775706,-98.563633
520,Alton,12341,26.2872931,-98.3133487
521,Orangetree,4406,26.2928621,-81.5884153
522,Elsa,5660,26.2934048,-97.9930588
523,Edcouch,3161,26.2939604,-97.9605575
524,Hillsboro Beach,1875,26.2939687,-80.0789318
525,San Carlos,3130,26.2956267,-98.0719508
526,La Villa,1957,26.2986827,-97.9286117
527,Lakeview,-999,26.2995242,-80.1600454
528,Edinburg,77100,26.3017374,-98.1633433
529,Parkland,23962,26.3100794,-80.23727
530,Deerfield Beach,75018,26.3184123,-80.0997657
531,Garciasville,46,26.319235,-98.6939133
532,La Casita,128,26.3236791,-98.7153026
533,Citrus City,2321,26.3264584,-98.3852951
534,Bonita Springs,43914,26.339806,-81.7786972
535,El Refugio,331,26.340345,-98.755859
536,Kelsay,-999,26.341734,-98.7400254
537,Sebastian,1917,26.3428491,-97.790273
538,La Puerta,632,26.3445116,-98.7450255
539,Santa Cruz,54,26.3545111,-98.7683593
540,Boca Raton,84392,26.3586885,-80.0830984
541,Santa Monica,83,26.362293,-97.5858204
542,Las Lomas,3147,26.3647884,-98.7753038
543,Monte Alto,1924,26.3731249,-97.9716692
544,Rio Grande City,13834,26.3797874,-98.8203046
545,Los Barreras,288,26.3867308,-98.920584
546,Highland Beach,3539,26.3995204,-80.0655977
547,Coconut,-999,26.3995264,-81.8395315
548,Rosita,-999,26.3997858,-98.9278065
549,Roma-Los Saenz,-999,26.4050626,-99.0158635
550,Roma,9765,26.405261,-99.015807
551,Garceno,420,26.4064522,-98.9394735
552,Fronton,180,26.4070058,-99.0839196
553,Faysville,439,26.4103453,-98.1352866
554,Escobares,1188,26.4106186,-98.9625294
555,Lyford,2611,26.4122916,-97.7897176
556,Immokalee,24154,26.4186898,-81.4172993
557,Estero,22612,26.438136,-81.8067524
558,Hargill,877,26.4425672,-98.0138932
559,Sanibel,6469,26.4489695,-82.0223137
560,Fort Myers Beach,6277,26.4520248,-81.948145
561,Delray Beach,60522,26.4614625,-80.0728201
562,Lasara,1039,26.4647894,-97.9111115
563,San Carlos Park,16824,26.4673016,-81.8014742
564,Raymondville,11284,26.4814565,-97.783051
565,Punta Rassa,1750,26.4878569,-82.0123132
566,Gulf Stream,786,26.4936835,-80.0550417
567,Red Gate,-999,26.4967315,-98.1338977
568,Saint James City,3784,26.497579,-82.0784257
569,Golf,252,26.4986834,-80.1086543
570,San Perlita,573,26.5011785,-97.6397112
571,Briny Breezes,601,26.5084053,-80.0508748
572,Saline_o,201,26.5164462,-99.1122546
573,Captiva,583,26.5220228,-82.1892614
574,Boynton Beach,68217,26.5253491,-80.0664309
575,Ocean Ridge,1786,26.5270157,-80.0483747
576,Port Mansfield,226,26.5547883,-97.4249807
577,Falcon Heights,53,26.5589442,-99.1230884
578,Linn,801,26.560063,-98.121952
579,Falcon Village,47,26.5614439,-99.1344774
580,Cape Coral,154305,26.5628537,-81.9495331
581,Hypoluxo,2588,26.5664588,-80.0533748
582,Manalapan,406,26.5692364,-80.0447635
583,El Sauz,-999,26.573947,-98.8716953
584,Gateway,8401,26.5775747,-81.750361
585,Lantana,10423,26.5867358,-80.0519859
586,South Palm Beach,1171,26.588958,-80.0386522
587,Atlantis,2005,26.5909025,-80.1008762
588,Lehigh Acres,86784,26.6046008,-81.65278506
589,Okeelanta,-999,26.6097914,-80.7114479
590,Pine Island Center,1854,26.6136856,-82.1181479
591,Lake Worth,34910,26.6159015,-80.056986
592,Greenacres,37573,26.6274784,-80.1373113
593,Matlacha,677,26.6297958,-82.0709245
594,Palm Springs,18928,26.6359009,-80.0961538
595,Falcon,-999,26.6381079,-99.0955885
596,New Falcon,191,26.6386634,-99.0955885
597,Fort Myers,62298,26.640628,-81.8723084
598,Montura,3283,26.64283,-81.0937395
599,Lake Clarke Shores,3376,26.6453449,-80.0758754
600,Wellington,56508,26.6586779,-80.2414357
601,Pineland,407,26.6606283,-82.1534262
602,South Bay,4876,26.6639559,-80.7161701
603,North Fort Myers,39407,26.6672935,-81.8800862
604,Santa Anna,13,26.6681128,-98.5644646
605,Glen Ridge,219,26.6695108,-80.0742086
606,Tice,4470,26.674793,-81.8150845
607,Buckingham,4036,26.6750704,-81.7320269
608,Cloud Lake,135,26.6761772,-80.0739309
609,Delmita,216,26.6800573,-98.412515
610,Loxahatchee Groves,3180,26.6836769,-80.27977
611,Belle Glade,17467,26.6845104,-80.6675577
612,La Reforma,-999,26.6856128,-98.3744581
613,Rudolph,-999,26.6856174,-97.7688836
614,Haverhill,1873,26.6911767,-80.1200433
615,Lake Harbor,45,26.693122,-80.8145058
616,Westgate,7975,26.6994068,-80.098805
617,Palm Beach,8348,26.7056206,-80.0364297
618,Bokeelia,1780,26.7056266,-82.1589815
619,Royal Palm Beach,34140,26.7083984,-80.2306019
620,Fort Myers Shores,5487,26.7092357,-81.7459159
621,Lope_o,174,26.7114378,-99.1100336
622,West Palm Beach,99919,26.7153425,-80.0533746
623,Bayshore,-999,26.7153469,-81.8234178
624,Alva,2596,26.7156236,-81.6100797
625,San Isidro,240,26.7167226,-98.453905
626,Viboras,-999,26.7172758,-98.8272495
627,Pioneer,697,26.7258532,-81.2189634
628,Harlem,2658,26.7375652,-80.950898
629,Denaud,-999,26.7422887,-81.5100775
630,Boca Grande,-999,26.7489586,-82.262039
631,Clewiston,7155,26.7542312,-80.9336753
632,Port LaBelle,3530,26.7564546,-81.4050752
633,Santa Elena,-999,26.7600544,-98.4864057
634,Mangonia Park,1888,26.760341,-80.0736529
635,LaBelle,4640,26.7617322,-81.4384092
636,Goodno,-999,26.768676,-81.3117397
637,Riviera Beach,32488,26.7753405,-80.0580969
638,Palm Beach Shores,1142,26.7781183,-80.0355962
639,Norias,-999,26.7900588,-97.776106
640,The Acreage,38704,26.794042,-80.267487
641,Lake Park,8155,26.8003398,-80.0664305
642,North Palm Beach,12015,26.8175615,-80.0819864
643,Pahokee,5649,26.8200607,-80.6653351
644,Palm Beach Gardens,48452,26.8233946,-80.1386547
645,Placida,-999,26.8322884,-82.2648163
646,Moore Haven,1680,26.8331174,-81.0931234
647,Siesta Shores,1382,26.8580961,-99.2536473
648,Canal Point,367,26.8592258,-80.6336676
649,South Punta Gorda Heights,-999,26.8656193,-81.9909211
650,Falcon Mesa,405,26.8728172,-99.2894813
651,Falcon Lake,1036,26.8728176,-99.255314
652,Juno Beach,3176,26.8797819,-80.0533743
653,Guerra,6,26.8831028,-98.8936402
654,Rotonda,8759,26.8836752,-82.2900944
655,Rachal,-999,26.890053,-98.1352829
656,Agua Nueva,-999,26.9017168,-98.6002976
657,Zapata,5089,26.9072605,-99.2714255
658,Grove City,1804,26.9142295,-82.3270394
659,Armstrong,-999,26.9244994,-97.7913842
660,Punta Gorda,16641,26.9297836,-82.0453664
661,Jupiter,55156,26.9342246,-80.0942087
662,Encino,143,26.9361628,-98.1352829
663,Palmdale,-999,26.9453358,-81.3161838
664,Solana,742,26.9470051,-82.0259214
665,Jupiter Inlet Colony,400,26.9480985,-80.075489
666,Las Palmas,67,26.9525364,-99.2750368
667,Charlotte Harbor,3714,26.9583937,-82.0670333
668,Cleveland,2990,26.9617265,-81.983976
669,Englewood,14863,26.9620053,-82.3525952
670,Tequesta,5629,26.9681123,-80.1286542
671,Port Charlotte,54392,26.9761707,-82.0906448
672,Port Mayaca,-999,26.9864436,-80.6061667
673,Harbour Heights,2987,26.9908921,-82.0023095
674,Bustamante,-999,27.0008718,-99.1119785
675,Ramireno,35,27.0069778,-99.3847614
676,Murdock,-999,27.0128361,-82.1462014
677,Indiantown,6083,27.0272756,-80.4856083
678,Jupiter Island,817,27.0314437,-80.1014312
679,San Ygnacio,667,27.0425317,-99.4400404
680,North Port,57357,27.044224,-82.2359254
681,South Venice,13949,27.0531128,-82.4242628
682,Hobe Sound,11521,27.059498,-80.1364323
683,Warm Mineral Springs,5061,27.0597789,-82.2600925
684,Escobas,-999,27.0625388,-99.0236427
685,Venus,-999,27.0672755,-81.3567397
686,Venice Gardens,7104,27.0731119,-82.4075957
687,Randado,-999,27.0805974,-98.8783608
688,Gomez,-999,27.0847748,-80.143377
689,Fort Ogden,-999,27.0872769,-81.9523079
690,Venice,20748,27.0997775,-82.4542633
691,Hull,-999,27.1192201,-81.9423076
692,Nokomis,3167,27.1192213,-82.4442629
693,Buckhead Ridge,1450,27.1303277,-80.8936735
694,Laurel,8171,27.1303319,-82.453152
695,Port Salerno,10091,27.1442168,-80.2006014
696,Nocatee,4524,27.1603293,-81.8823061
697,Palm City,23120,27.1678268,-80.2661591
698,Port Sewall,-999,27.1861598,-80.1894901
699,Osprey,6100,27.1961627,-82.4903748
700,Stuart,15593,27.197548,-80.2528257
701,Sewall's Point,1996,27.1994926,-80.2022684
702,Arcadia,7637,27.2158826,-81.8584164
703,Flowella,118,27.2164329,-98.0644475
704,North River Shores,3079,27.2175472,-80.2697706
705,Rio,965,27.2194917,-80.2392142
706,Airport Road Addition,93,27.2200435,-98.0994483
707,Sarita,238,27.2217116,-97.7891623
708,Vamo,4727,27.2219951,-82.4978748
709,Brighton,-999,27.2258799,-81.0950668
710,Falfurrias,4981,27.2269872,-98.1441714
711,Ocean Breeze Park,355,27.2358802,-80.2206026
712,Placid Lakes,-999,27.2414357,-81.4070179
713,Okeechobee,5621,27.2439349,-80.8297828
714,Cypress Quarters,1215,27.2519902,-80.8139491
715,Jensen Beach,11707,27.2544906,-80.2297697
716,Lake Placid,2223,27.2930999,-81.3628502
717,Port Saint Lucie,164603,27.2939333,-80.3503283
718,Riviera,689,27.2986535,-97.8149965
719,Walton,-999,27.3000443,-80.2561594
720,Hebbronville,4558,27.3067057,-98.6783517
721,Hutchinson Island South,5201,27.3264788,-80.2111923
722,Fruitville,13224,27.3297684,-82.4575956
723,Sarasota,51917,27.3364347,-82.5306527
724,Ankona,-999,27.3405984,-80.2750488
725,Ramirez,-999,27.345594,-98.4097329
726,Myakka City,-999,27.3497671,-82.161478
727,Gardner,463,27.3517105,-81.7998042
728,El Cenizo,3273,27.3522445,-99.492542
729,Premont,2653,27.3605947,-98.1236151
730,Fort Basinger,-999,27.362264,-81.0570102
731,Rio Bravo,4794,27.3641887,-99.4800415
732,Limestone,132,27.3655991,-81.8989729
733,Parmalee,-999,27.3711553,-82.2181456
734,White City,3719,27.3739304,-80.3339391
735,Cornwell,-999,27.3786521,-81.0967332
736,Verna,-999,27.3872659,-82.2681466
737,Concepcion,62,27.3936482,-98.3552871
738,La Presa,319,27.4000212,-99.4372623
739,Basinger,-999,27.4003186,-81.0164538
740,Tallevast,-999,27.4017098,-82.5428749
741,Plains,-999,27.4094836,-81.1842349
742,Whitfield,2882,27.4117092,-82.5659308
743,Longboat Key,6888,27.4125417,-82.6589881
744,Ricardo,1048,27.4214275,-97.8511088
745,Bayshore Gardens,16323,27.4253195,-82.5903757
746,Bruni,379,27.4261436,-98.8408552
747,Mirando City,375,27.4397497,-99.001137
748,De Soto City,-999,27.4425383,-81.405073
749,Lorida,-999,27.4433705,-81.2536807
750,Realitos,184,27.4447576,-98.5283471
751,Fort Pierce,41590,27.4467056,-80.3256056
752,Aguilares,21,27.4486359,-99.0872507
753,Rios,-999,27.4517023,-98.2650068
754,Oilton,353,27.4658609,-98.9741916
755,Bradenton Beach,1171,27.4669836,-82.7039886
756,Cortez,4241,27.4692058,-82.6862105
757,Samoset,3854,27.4694849,-82.5414856
758,Ella,-999,27.473647,-98.1058367
759,Ona,314,27.4819836,-81.9189734
760,Pueblo Nuevo,521,27.488813,-99.309871
761,Saint Lucie,590,27.4894819,-80.3397727
762,Zolfo Springs,1827,27.4933718,-81.7959155
763,Holmes Beach,3836,27.4953156,-82.7109329
764,Sebring,10491,27.495592,-81.440907
765,Bradenton,49546,27.4989278,-82.5748194
766,Laredo,236091,27.506407,-99.5075421
767,Kingsville,26213,27.5158689,-97.856109
768,Indrio,-999,27.5205919,-80.3528285
769,Palmetto,12606,27.5214269,-82.5723193
770,Ellenton,4275,27.521705,-82.5275963
771,Fort Drum,-999,27.5267045,-80.8067268
772,Anna Maria,1503,27.5311474,-82.7334334
773,Memphis,7848,27.5358708,-82.561208
774,Viking,-999,27.5417023,-80.3619953
775,Lakewood Park,11323,27.5430911,-80.4022741
776,Wauchula,5001,27.5472589,-81.8114715
777,Lemon Grove,657,27.5583693,-81.6781351
778,Rubonia,-999,27.5789245,-82.5525967
779,Bishop,3134,27.5861441,-97.7991636
780,Chapman Ranch,-999,27.5864241,-97.4533261
781,Oslo,-999,27.5867008,-80.380329
782,Parrish,-999,27.5875357,-82.4250941
783,Duette,-999,27.5903135,-82.122866
784,Palito Blanco,-999,27.5916983,-98.1891718
785,Fort Green Springs,231,27.5917022,-81.9392515
786,Avon Park,8836,27.5958672,-81.5061862
787,Benavides,1362,27.5989194,-98.4080661
788,Fort Green,101,27.6125348,-81.9434182
789,Piney Point,-999,27.6342,-82.5403742
790,Bowling Green,2930,27.6383673,-81.8239717
791,Vero Beach,15220,27.6386434,-80.3972736
792,Ben Bolt,-999,27.6475301,-98.0813917
793,Bereah,-999,27.6611435,-81.6256338
794,Petronila,113,27.671975,-97.6358282
795,Driscoll,739,27.6744741,-97.7486072
796,Gifford,9590,27.6753089,-80.4092181
797,Sun City,-999,27.678365,-82.4787062
798,Tierra Verde,3721,27.6919746,-82.7234337
799,Yeehaw Junction,240,27.7003087,-80.9042284
800,Wimauma,6373,27.7125308,-82.2989803
801,Indian River Shores,3901,27.7166964,-80.3842173
802,Sun City Center,19258,27.718086,-82.351759
803,Winter Beach,2067,27.7191964,-80.4206071
804,Ruskin,17208,27.7208633,-82.4331496
805,Saint Pete Beach,9346,27.7253065,-82.741212
806,West Frostproof,-999,27.733641,-81.5831327
807,Frostproof,2992,27.7458626,-81.5306313
808,Gulfport,12029,27.7483613,-82.7034334
809,Wabasso,609,27.7483622,-80.436163
810,Alice,19104,27.7522487,-98.0697249
811,Fort Meade,5626,27.7522526,-81.8017491
812,Brewster,3,27.7528082,-81.9795299
813,South Pasadena,4964,27.7550276,-82.7376009
814,Botines,117,27.7564004,-99.4378156
815,Balm,1457,27.7594736,-82.2612017
816,San Diego,4488,27.7639145,-98.2388953
817,Wabasso Beach,1853,27.7647502,-80.3989397
818,Fellsmere,5197,27.767806,-80.6014442
819,Treasure Island,6705,27.7691937,-82.7689906
820,Saint Petersburg,244769,27.7708606,-82.6792661
821,Orchid,415,27.7728055,-80.4169956
822,Apollo Beach,14055,27.7730836,-82.4075935
823,Agua Dulce,812,27.781692,-97.9086105
824,Violet,-999,27.7836373,-97.5952723
825,Rosita,-999,27.7864122,-98.4305665
826,Pembroke,-999,27.7864182,-81.8050823
827,Windsor,256,27.786757,-80.4139846
828,San Pedro,-999,27.7886365,-97.6783289
829,Robstown,11487,27.7903032,-97.6688843
830,Bradley Junction,686,27.7953069,-81.9803629
831,Madeira Beach,4263,27.7980814,-82.7973247
832,Corpus Christi,305215,27.8005828,-97.396381
833,Banquete,726,27.8061352,-97.7961085
834,Redington Beach,1427,27.8086364,-82.811214
835,Bay Pines,2931,27.8141921,-82.7781574
836,Kenneth City,4980,27.8155812,-82.7201004
837,North Redington Beach,1417,27.8161361,-82.8206587
838,Sebastian,21929,27.816415,-80.4706078
839,Homeland,366,27.8178061,-81.8245267
840,Lealman,19879,27.8211366,-82.6792661
841,Hillcrest Heights,254,27.8211378,-81.530631
842,Redington Shores,2121,27.8261357,-82.8289923
843,Ingleside On-the-Bay,-999,27.8294717,-97.2233236
844,Ingleside on the Bay,615,27.8302465,-97.2211919
845,Babson Park,1356,27.8319708,-81.5222975
846,Port Aransas,3480,27.8339158,-97.0610994
847,Roseland,1472,27.8358587,-80.4931083
848,Seminole,17233,27.8397466,-82.7912134
849,Viola,-999,27.8422462,-97.5236049
850,Pinellas Park,49079,27.8428025,-82.6995444
851,Gibsonton,14234,27.8536365,-82.3825931
852,Indian Shores,1420,27.862801,-82.8484373
853,Highland Park,230,27.8650254,-81.5617427
854,Riverview,71050,27.8661364,-82.3264809
855,Keysville,-999,27.8691931,-82.0956424
856,Alturas,4185,27.871693,-81.7150798
857,Indian Rocks Beach,4113,27.8753005,-82.8512152
858,Kenansville,-999,27.8764138,-80.9878408
859,Portland,15099,27.8772463,-97.3238805
860,Ingleside,9387,27.8778026,-97.211657
861,Alfred,91,27.8805767,-97.9847231
862,Micco,9052,27.8805791,-80.5003306
863,Freer,2818,27.8827965,-98.6177929
864,Doyle,254,27.8875234,-97.3444364
865,West Lake Wales,-999,27.890303,-81.646467
866,Bloomingdale,22711,27.893636,-82.2403682
867,South La Paloma,345,27.8946157,-97.9685259
868,Alcoma,-999,27.8950239,-81.4822964
869,Mulberry,3817,27.8953038,-81.9734172
870,Bartow,17298,27.8964147,-81.8431374
871,Baskin,-999,27.8969669,-82.7951024
872,Lake Wales,14225,27.9014133,-81.5859099
873,Los Huisaches,17,27.9070284,-99.475803
874,Fuller Heights,8758,27.9091923,-81.9981396
875,Harbor Bluffs,2860,27.9094662,-82.8276034
876,Largo,77648,27.9094665,-82.7873244
877,Aransas Pass,8204,27.9094677,-97.1499898
878,Belleair Shore,109,27.9157534,-82.84556485
879,Highpoint,5195,27.9169666,-82.7128781
880,Belleair Bluffs,2031,27.9214103,-82.8170475
881,Gregory,1907,27.9222444,-97.2899915
882,Belleair Beach,1560,27.9230767,-82.8431594
883,Grant,-999,27.9289105,-80.5264419
884,Sandy Hollow-Escondidas,296,27.9299727,-97.7924503
885,Belleair,3869,27.9358543,-82.8062139
886,Brandon,103483,27.937801,-82.2859247
887,Grant-Valkaria,3850,27.939804,-80.571043
888,Tampa,335709,27.9475216,-82.4584279
889,Odem,2389,27.9505741,-97.5822172
890,Wahneta,5091,27.9528015,-81.7270239
891,San Patricio,395,27.9544619,-97.7719419
892,Orange Grove,1318,27.9566843,-97.9369447
893,Valkaria,-999,27.9636313,-80.5436643
894,Estes,-999,27.9639094,-97.1002675
895,Highland City,10834,27.9653015,-81.8778596
896,Clearwater,107685,27.9658533,-82.8001026
897,Medulla,8892,27.9678016,-81.9734164
898,Orient Park,-999,27.9725214,-82.3728708
899,Taft Southwest,1460,27.972997,-97.4056664
900,Edroy,331,27.973628,-97.6761074
901,Eagle Lake,2255,27.9783565,-81.7564688
902,Taft,3048,27.9789074,-97.3986041
903,Waverly,767,27.9789109,-81.6139657
904,Mango,11313,27.9797439,-82.3064808
905,Seffner,7579,27.9836329,-82.2756468
906,Safety Harbor,16884,27.9908529,-82.6931553
907,Dover,3702,27.9941885,-82.2195344
908,Malabar,2757,28.0036298,-80.5656089
909,Eaton Park,-999,28.0086334,-81.9075818
910,Seven Sisters,-999,28.0105691,-98.53918
911,Plant City,34721,28.0186323,-82.1128641
912,Dunedin,35321,28.0197404,-82.7717684
913,Rockport,8766,28.0205733,-97.0544341
914,Winter Haven,33874,28.0222435,-81.7328568
915,Sandia,379,28.0225146,-97.8794439
916,Dundee,3717,28.0225206,-81.6192432
917,Winston,-999,28.0316879,-82.0148055
918,Oldsmar,13591,28.0341847,-82.6650992
919,Palm Bay,103190,28.0344621,-80.5886646
920,Temple Terrace,24541,28.0352964,-82.3892596
921,Sinton,5665,28.0366818,-97.5091611
922,Inwood,6403,28.0369654,-81.7650794
923,Lakeland,97422,28.0394654,-81.9498042
924,Encinal,559,28.041117,-99.3544787
925,Lake Hamilton,1231,28.0444644,-81.6278544
926,Curlew,-999,28.0530728,-82.7428788
927,Pernitas Point,-999,28.0600129,-97.9047221
928,Fulton,1358,28.0614047,-97.0411008
929,Thonotosassa,13014,28.0614065,-82.3023128
930,Auburndale,13507,28.0652975,-81.7886906
931,Melbourne Beach,3101,28.0683496,-80.5603303
932,West Melbourne,18355,28.0716832,-80.6533878
933,June Park,4094,28.0722388,-80.6800551
934,Knights,-999,28.0764068,-82.137586
935,Palm Harbor,57439,28.0780718,-82.7637127
936,Citrus Park,24252,28.0783497,-82.5698192
937,Lake City,509,28.0794565,-97.8858331
938,Melbourne,76068,28.0836269,-80.6081089
939,Melbourne Village,662,28.0852939,-80.6664436
940,Indialantic,2720,28.0894599,-80.5656079
941,Crystal Beach,-999,28.0914044,-82.7798243
942,Deer Park,-999,28.0914059,-80.8978379
943,Lake Alfred,5015,28.091963,-81.7234114
944,Bayside,325,28.0939035,-97.2147137
945,Mathis,4942,28.0944558,-97.8280543
946,Saint Paul,584,28.0994567,-97.5558283
947,Lakeside,312,28.10454,-97.86117
948,Haines City,20535,28.1141841,-81.6178536
949,Gibsonia,-999,28.1147396,-81.9736927
950,Kathleen,6332,28.1208502,-82.023138
951,Eau Gallie,-999,28.1291809,-80.6303312
952,Holopaw,-999,28.1358492,-81.0761754
953,Lamar,636,28.1394565,-97.0055455
954,Poinciana,53193,28.1402939,-81.4584058
955,Tarpon Springs,23484,28.1461248,-82.756768
956,Indian Harbour Beach,8225,28.1489021,-80.5883855
957,Lutz,19344,28.1511243,-82.4614831
958,Providence,-999,28.1539044,-81.9734145
959,Davenport,2888,28.1614046,-81.6017417
960,Cranell,-999,28.1680661,-97.3927711
961,Holiday Beach,514,28.1688995,-97.0102679
962,Tynan,278,28.1694525,-97.7574976
963,Papalote,-999,28.1725089,-97.60194
964,Satellite Beach,10109,28.1761233,-80.5900519
965,Crystal Springs,1327,28.1814008,-82.1575843
966,Polk City,1562,28.1825147,-81.8239676
967,Palm Shores,900,28.1844568,-80.6528312
968,Holiday,22403,28.18779,-82.7395454
969,Odessa,7267,28.1939007,-82.5917642
970,Elfers,13986,28.2166778,-82.7223228
971,Land O' Lakes,31996,28.2188992,-82.4575938
972,Dinero,-999,28.2263943,-97.9616684
973,Zephyrhills,13288,28.2336196,-82.1811947
974,Pineda,-999,28.2372327,-80.6783869
975,Woodsboro,1512,28.2383414,-97.319993
976,Wesley Chapel,44092,28.2397301,-82.3278658
977,Loughman,2680,28.2419575,-81.5667404
978,Drexel,-999,28.2427871,-82.459816
979,New Port Richey,14911,28.2441768,-82.7192671
980,Saint Cloud,35183,28.2489016,-81.2811801
981,Skidmore,925,28.2541716,-97.6855522
982,Campbell,2479,28.2589014,-81.4564608
983,Intercession City,-999,28.2625124,-81.5078505
984,Lumberton,-999,28.2661188,-82.1364716
985,Port Richey,2671,28.2716755,-82.7195451
986,Artesia Wells,-999,28.279997,-99.2844773
987,Pasadena Hills,7570,28.2879115,-82.2376489
988,Kissimmee,59682,28.2919557,-81.407571
989,Jasmine Estates,18989,28.2930632,-82.6901003
990,Narcoossee,-999,28.2983441,-81.2389569
991,Connerton,2116,28.302415,-82.4624465
992,Refugio,2890,28.3052838,-97.2752704
993,Cocoa Beach,11231,28.3200067,-80.6075513
994,Pasco,-999,28.3247263,-82.3370334
995,Celebration,7427,28.3252878,-81.5331286
996,Eva,-999,28.3263975,-81.8334111
997,Bayonet Point,23467,28.3266726,-82.6834337
998,George West,2445,28.3325002,-98.1175054
999,San Antonio,1138,28.3361142,-82.2745308
1000,Saint Leo,1340,28.3372251,-82.2584191
1001,Catarina,118,28.3455475,-99.6133788
1002,Rockledge,24926,28.3508396,-80.7253317
1003,Merritt Island,34743,28.35101674,-80.69387119
1004,Hudson,12158,28.3644485,-82.6934343
1005,Dade City,6437,28.3647248,-82.1959178
1006,Lake Mary Jane,1575,28.3690327,-81.160052
1007,Cocoa,17140,28.3861159,-80.7419984
1008,Bay Lake,47,28.3886186,-81.5659069
1009,Austwell,147,28.3902814,-96.842208
1010,Lake Hart,542,28.3927849,-81.2406232
1011,Lake Buena Vista,10,28.3936186,-81.5386842
1012,Beeville,12863,28.4008319,-97.7483312
1013,Cape Canaveral,9912,28.4058366,-80.6047732
1014,Blanton,-999,28.4116667,-82.2464752
1015,Seadrift,1364,28.4152807,-96.7135933
1016,Taft,2205,28.4297282,-81.36507
1017,Aripeka,308,28.4322226,-82.6642675
1018,Sharpes,3411,28.4322252,-80.7600541
1019,Vidaurri,-999,28.4366689,-97.1369354
1020,Cotulla,3603,28.436934,-99.2350322
1021,Masaryktown,1040,28.4416658,-82.4570395
1022,Asherton,1084,28.4419323,-99.7603293
1023,Port O'Connor,1253,28.4483353,-96.4058072
1024,Doctor Phillips,10981,28.4494501,-81.4922946
1025,Tivoli,479,28.4552796,-96.8880422
1026,Tangelo Park,2231,28.4558386,-81.4459048
1027,Sky Lake,6153,28.4572272,-81.3914593
1028,Belle Isle,5988,28.4583383,-81.3592364
1029,Three Rivers,1848,28.4602717,-98.1825071
1030,Frontenac,-999,28.4616685,-80.7633872
1031,Tilden,261,28.4619375,-98.549184
1032,Trilby,419,28.4624986,-82.1948076
1033,Fowlerton,55,28.4655476,-98.8108573
1034,Los Angeles,-999,28.4658239,-99.0000278
1035,Lacoochee,1714,28.4658322,-82.1720291
1036,Hernando Beach,2299,28.469443,-82.6592677
1037,Pine Castle,10805,28.4719489,-81.3678477
1038,Spring Hill,98621,28.476885,-82.525461
1039,Port Saint John,12267,28.4769458,-80.7886657
1040,Bay Lake,-999,28.4775015,-81.9059115
1041,Garden Grove,674,28.480275,-82.4350945
1042,Calliham,-999,28.4805479,-98.3502895
1043,Long Mott,-999,28.4825007,-96.7605384
1044,Edgewood,2503,28.486115,-81.3722922
1045,Wedgefield,6705,28.4877802,-81.0772851
1046,Powell,-999,28.4924966,-82.4284276
1047,Spring Lake,458,28.4936077,-82.3028673
1048,Windermere,2462,28.4955593,-81.5347952
1049,Berkeley,-999,28.5027742,-82.5887106
1050,Conway,13467,28.5027809,-81.3306246
1051,Bellwood,-999,28.5050001,-80.7844986
1052,Ridge Manor,4513,28.5074971,-82.1703628
1053,El Indio,190,28.5119284,-100.3111817
1054,Indianola,-999,28.5119449,-96.487475
1055,Weeki Wachee,12,28.5155513,-82.5728769
1056,Gardendale,-999,28.5169303,-99.2161435
1057,Carrizo Springs,5368,28.5219292,-99.8606107
1058,Gotha,1915,28.5277804,-81.5231283
1059,Normanna,113,28.5297152,-97.782221
1060,Berclair,-999,28.5308282,-97.5911064
1061,Christmas,1146,28.5363893,-81.0175609
1062,Orlando,238300,28.5383355,-81.3792365
1063,Orlovista,6123,28.5383357,-81.4603494
1064,Wiscon,706,28.5408278,-82.4620402
1065,Azalea Park,12556,28.5411128,-81.3006237
1066,Bayport,43,28.5458279,-82.6420452
1067,Clermont,28742,28.5494447,-81.7728543
1068,McFaddin,-999,28.5538878,-97.013878
1069,Bithlo,8268,28.5547225,-81.106452
1070,Oakland,2538,28.555001,-81.6331299
1071,Brooksville,7719,28.5552719,-82.3878709
1072,Pine Hills,60076,28.5577794,-81.4534046
1073,Groveland,8729,28.5580546,-81.8511889
1074,Indian River City,-999,28.5597205,-80.7992207
1075,Tildenville,511,28.5597232,-81.6084073
1076,Magnolia Beach,-999,28.5602765,-96.542754
1077,Winter Garden,34568,28.5652787,-81.5861847
1078,Rerdell,-999,28.5674952,-82.1561964
1079,Union Park,9765,28.5680564,-81.2861788
1080,Ocoee,35579,28.5691677,-81.5439619
1081,Tuleta,288,28.5708246,-97.7972215
1082,Big Wells,697,28.5733162,-99.5686565
1083,Brundage,27,28.5741496,-99.6686601
1084,Minneola,9403,28.5744441,-81.7461873
1085,Pine Island,64,28.5752709,-82.6526009
1086,Mascotte,5101,28.5783313,-81.8867452
1087,Millett,-999,28.5819279,-99.1991995
1088,Fairview Shores,10239,28.5911114,-81.3942365
1089,Winter Park,27852,28.5999998,-81.3392352
1090,Montverde,1463,28.6002769,-81.673964
1091,Webster,785,28.6099949,-82.0550827
1092,Saint Catherine,-999,28.6102718,-82.1381407
1093,Goldenrod,12039,28.6102772,-81.2886784
1094,Titusville,43761,28.6122187,-80.8075538
1095,Clarcona,2990,28.6127776,-81.4986832
1096,Eatonville,2159,28.6147216,-81.3806249
1097,Port Lavaca,12248,28.6149968,-96.6260892
1098,Pettus,558,28.6180446,-97.8022219
1099,Lockhart,13060,28.6194439,-81.4425708
1100,Winter Haven,-999,28.6197036,-99.8575554
1101,Ferndale,472,28.6219425,-81.7034089
1102,Maitland,15751,28.6277767,-81.3631244
1103,Whitsett,-999,28.634153,-98.2719541
1104,Lake Lindsey,71,28.6347134,-82.3592592
1105,Kamey,-999,28.6361073,-96.7433146
1106,Chuluota,2483,28.6419419,-81.123396
1107,Tulsita,14,28.6430435,-97.8161112
1108,Nobleton,282,28.6455471,-82.2639784
1109,Bloomington,2459,28.6477735,-96.8924852
1110,Fern Park,7704,28.6491649,-81.3511796
1111,Center Hill,988,28.6499942,-81.9925814
1112,Pawnee,166,28.6527644,-98.0027813
1113,Istachatta,116,28.6599909,-82.2775901
1114,Port Alto,-999,28.6599945,-96.4133057
1115,Altamonte Springs,41496,28.6611089,-81.3656243
1116,Bushnell,2418,28.6649924,-82.1128629
1117,Mims,7058,28.6652727,-80.8447766
1118,Dilley,3894,28.6674802,-99.1705887
1119,Goliad,1908,28.6683252,-97.3883265
1120,Oviedo,33342,28.669997,-81.2081203
1121,Crystal City,7138,28.6774795,-99.8281104
1122,Casselberry,26241,28.677775,-81.3278455
1123,Point Comfort,737,28.6797169,-96.5602537
1124,Apopka,41542,28.6805529,-81.5095165
1125,Pineola,-999,28.6888788,-82.272868
1126,Matagorda,503,28.6908222,-95.9674625
1127,Placedo,692,28.6913833,-96.8280387
1128,Plymouth,-999,28.6922188,-81.547295
1129,Hilltop,287,28.6930347,-99.1758669
1130,Fannin,-999,28.6955486,-97.2358241
1131,Winter Springs,33282,28.6988853,-81.3081226
1132,Longwood,13657,28.7030519,-81.3384011
1133,Palacios,4718,28.7080461,-96.2174671
1134,Eagle Pass,26248,28.7091433,-100.4995214
1135,Astatula,1810,28.7097167,-81.7328542
1136,Turnbull,-999,28.7102713,-80.8622767
1137,Chassahowitzka,-999,28.7130421,-82.5742656
1138,Howey-in-the-Hills,1098,28.71685552,-81.77335301
1139,Zellwood,2817,28.7311059,-81.6011849
1140,Sugarmill Woods,8287,28.7322082,-82.5062087
1141,Yalaha,1364,28.7386038,-81.8086893
1142,Green,-999,28.7388722,-97.8725015
1143,Geneva,2940,28.7397163,-81.1150616
1144,Charco,-999,28.7405413,-97.6155528
1145,Raisin,-999,28.7422139,-97.1197112
1146,Sumterville,-999,28.7449901,-82.063418
1147,Seco Mines,560,28.7474754,-100.4972992
1148,Campbellton,-999,28.747482,-98.3025108
1149,Okahumpka,267,28.7477694,-81.8959137
1150,Floral City,5217,28.7499876,-82.2967581
1151,Guadalupe,-999,28.7519366,-96.9227631
1152,Lake Panasoffkee,3551,28.75309519,-82.10637959
1153,Lake Mary,13822,28.7588833,-81.3178446
1154,Hawthorne,-999,28.7613803,-81.8709132
1155,Heathrow,5896,28.763333,-81.372245
1156,Choate,-999,28.7647052,-97.743055
1157,Tangerine,2865,28.7649933,-81.6306298
1158,Aloe,-999,28.7666576,-97.0760994
1159,Scottsmoor,-999,28.7669363,-80.87811
1160,Derby,-999,28.7713652,-99.1286444
1161,Quail Creek,1628,28.776399,-97.082316
1162,Homosassa,2578,28.7813722,-82.6151001
1163,Christine,390,28.7891467,-98.4972391
1164,Midway,1705,28.7902708,-81.2308972
1165,Lenz,-999,28.7905362,-97.9769479
1166,Shiloh,-999,28.7905464,-80.8044965
1167,La Salle,-999,28.7916577,-96.6691449
1168,Fashing,-999,28.7924803,-98.139729
1169,Sunnyside,-999,28.7988793,-81.835357
1170,Coleman,703,28.7997103,-82.0700856
1171,Sanford,53570,28.8005484,-81.2731203
1172,Mount Dora,12370,28.8024918,-81.644519
1173,Homosassa Springs,13791,28.8035939,-82.5759329
1174,Oakland Park,-999,28.8038804,-81.6772975
1175,Tavares,13951,28.8041579,-81.725632
1176,Victoria,62592,28.8052674,-97.0035982
1177,Maytown,-999,28.8072135,-80.9600566
1178,Sorrento,861,28.80777,-81.5636838
1179,Mount Plymouth,4011,28.808048,-81.5331274
1180,Leesburg,20117,28.810823,-81.8778582
1181,Kenedy,3296,28.8191468,-97.8486123
1182,Vanderbilt,395,28.8230452,-96.6174766
1183,Lake Monroe,-999,28.8247141,-81.3270103
1184,Wadsworth,-999,28.8324832,-95.9349598
1185,Inverness,7210,28.8358176,-82.3303715
1186,Lolita,555,28.8394332,-96.5424743
1187,Bassville Park,-999,28.8405452,-81.7686888
1188,La Ward,213,28.8438769,-96.4641388
1189,Osteen,-999,28.8461019,-81.1625612
1190,Weesatche,-999,28.847206,-97.4480495
1191,Telferner,-999,28.8488772,-96.8905395
1192,Lecanto,5882,28.8516486,-82.4875982
1193,Eustis,18558,28.8527675,-81.6853534
1194,Francitas,-999,28.8597082,-96.3385798
1195,McCoy,-999,28.8605327,-98.3477901
1196,Fruitland Park,4078,28.8613765,-81.9064705
1197,Charlotte,1715,28.8619201,-98.7064121
1198,Oak Hill,1792,28.8644338,-80.8544975
1199,Wildwood,6709,28.865264,-82.0389743
1200,Enterprise,-999,28.8691569,-81.2667299
1201,Blessing,927,28.8713733,-96.218021
1202,Grand Island,-999,28.8824885,-81.7289657
1203,DeBary,19320,28.8830452,-81.3086755
1204,Runge,1031,28.8833119,-97.7130543
1205,Karnes City,3042,28.8849772,-97.9008356
1206,Pearsall,9146,28.8921939,-99.095033
1207,Buckeye,-999,28.895538,-96.0480164
1208,Hernando,9054,28.8999815,-82.3745401
1209,Ariel,-999,28.9005441,-80.8636643
1210,Deltona,85182,28.9005446,-81.2636738
1211,Cedar Lake,-999,28.9010869,-95.6368955
1212,Crystal River,3108,28.902479,-82.5926012
1213,Inez,2098,28.9038756,-96.7880366
1214,Normandy,-999,28.9102466,-100.5978589
1215,North Pearsall,614,28.9149708,-99.096422
1216,Beverly Hills,8445,28.9169245,-82.4581536
1217,Lady Lake,13926,28.9174855,-81.9228604
1218,Jourdanton,3871,28.9180294,-98.5464069
1219,Nordheim,307,28.9210896,-97.6097188
1220,Nursery,-999,28.9235954,-97.0985991
1221,Oxford,-999,28.927484,-82.0373084
1222,Umatilla,3456,28.9294316,-81.6656305
1223,Quintana,56,28.9333037,-95.3082711
1224,The Villages,51442,28.934084,-81.959943
1225,Midfield,-999,28.9377598,-96.2080201
1226,La Pryor,1643,28.9410814,-99.8497801
1227,Pine Lakes,862,28.9410985,-81.4300675
1228,Surfside Beach,482,28.9444142,-95.2888257
1229,Coughran,-999,28.9444176,-98.4136252
1230,Quemado,230,28.9480229,-100.6239711
1231,El Toro,-999,28.9480406,-96.7052563
1232,Orange City,10599,28.9488761,-81.2986741
1233,Batesville,1068,28.9510815,-99.6178287
1234,Helena,-999,28.9538637,-97.8233342
1235,Freeport,12049,28.9541368,-95.3596617
1236,Markham,1082,28.9602581,-96.0652382
1237,Altoona,89,28.9658193,-81.6486855
1238,Cassadaga,-999,28.9663755,-81.235894
1239,Holder,-999,28.9669232,-82.4206532
1240,Pleasanton,8934,28.967194,-98.4786269
1241,Jones Creek,2020,28.9685817,-95.4552208
1242,Dallas,-999,28.9710936,-82.0409201
1243,Edna,5499,28.9785947,-96.6460877
1244,Lake Helen,2624,28.9808195,-81.2333937
1245,Yorktown,2092,28.9810888,-97.5027719
1246,Weirsdale,-999,28.9819277,-81.9242498
1247,Falls City,611,28.9827507,-98.0175047
1248,Bay City,17614,28.9827565,-95.969402
1249,Paisley,818,28.9835966,-81.5417375
1250,Edgewater,20750,28.9888754,-80.9022758
1251,Citrus Springs,8622,28.9974771,-82.4706548
1252,Pittman,180,28.9999846,-81.6417408
1253,Oyster Creek,1111,29.0030239,-95.3318823
1254,Crows Bluff,-999,29.0077627,-81.389232
1255,Summerfield,-999,29.0085924,-82.0348092
1256,Van Vleck,1844,29.0177541,-95.8893995
1257,East Lake Weir,-999,29.02,-81.90833
1258,Clute,11211,29.0246906,-95.3988291
1259,New Smyrna Beach,22464,29.0258191,-80.9269984
1260,Glencoe,2582,29.0258192,-80.9719995
1261,Samsula,-999,29.0260968,-81.0503346
1262,DeLand,27031,29.028318,-81.3031179
1263,Yankeetown,502,29.0299729,-82.7159396
1264,Inglis,1325,29.0302514,-82.6687161
1265,Lake Jackson,26849,29.0338575,-95.4343859
1266,Sweeny,3684,29.0388615,-95.6985608
1267,Poteet,3260,29.0405241,-98.5680739
1268,Ganado,2003,29.0405363,-96.5135831
1269,Brazoria,3019,29.0444147,-95.5691126
1270,Bigfoot,450,29.0469112,-98.8666937
1271,Dunnellon,1733,29.0491426,-82.4609331
1272,Moore,475,29.0552433,-99.0103089
1273,Belleview,4492,29.0552578,-82.0623105
1274,Richwood,3510,29.0560789,-95.4099403
1275,Danevang,-999,29.057478,-96.2074635
1276,Poth,1908,29.0696917,-98.0819508
1277,Candler,-999,29.0713692,-81.9681409
1278,Leming,946,29.0730233,-98.4841825
1279,Old Ocean,-999,29.0799726,-95.749673
1280,Wild Peach Village,2452,29.0835816,-95.6338363
1281,Cuero,6841,29.0938652,-97.2891568
1282,Shady,-999,29.0955337,-82.1689812
1283,Ponce Inlet,3032,29.0963729,-80.9369983
1284,Santos,-999,29.1091452,-82.0928676
1285,Louise,995,29.1113663,-96.4033018
1286,Lindenau,-999,29.1177521,-97.3708243
1287,De Leon Springs,2614,29.1194268,-81.3514536
1288,Allandale,-999,29.1216502,-80.9764436
1289,Morales,-999,29.1274775,-96.7624788
1290,Castolon,-999,29.133258,-103.5143474
1291,Floresville,6448,29.1335781,-98.1561192
1292,Hoskins,-999,29.134131,-95.2343776
1293,Port Orange,56048,29.1383165,-80.9956105
1294,Cedar Key,702,29.1385785,-83.0351212
1295,Yancey,-999,29.1394071,-99.1450355
1296,Devine,4350,29.1399633,-98.905306
1297,West Columbia,3905,29.1438582,-95.6452249
1298,Magnet,-999,29.1508075,-95.986901
1299,Bailey's Prairie,727,29.1524086,-95.4977491
1300,Astor Park,-999,29.1535911,-81.5720175
1301,Dabney,-999,29.1624627,-100.0995109
1302,Astor,1556,29.1624801,-81.5253492
1303,Uvalde Estates,2171,29.1652406,-99.8322804
1304,South Daytona,12252,29.1658158,-81.0044995
1305,Angleton,18862,29.16941,-95.4318847
1306,Spofford,95,29.1752389,-100.4136881
1307,Daytona Beach Shores,4247,29.1760933,-80.9828323
1308,Pilottown,-999,29.1816126,-89.2575512
1309,Pledger,-999,29.1824723,-95.9085652
1310,Blewett,-999,29.184962,-100.0306199
1311,Martel,-999,29.1866423,-82.246485
1312,Ocala,56315,29.1871986,-82.1400923
1313,Barberville,-999,29.1872023,-81.420901
1314,Boquillas Crossing,-999,29.1888165,-102.9454397
1315,Natalia,1431,29.189684,-98.8625269
1316,Jamaica Beach,983,29.189684,-94.9796456
1317,Lynne,-999,29.1924772,-81.9173071
1318,Westhoff,-999,29.1949702,-97.4711024
1319,El Campo,11602,29.1966405,-96.2696867
1320,Edgar,-999,29.20525,-97.234155
1321,Romeo,-999,29.2063616,-82.4362127
1322,Uvalde,15751,29.2096836,-99.7861679
1323,Holiday Lakes,1107,29.2096878,-95.5168874
1324,Daytona Beach,61005,29.2108147,-81.0228331
1325,Eldridge,-999,29.2113681,-81.4572914
1326,Thelma,-999,29.2141293,-98.5016829
1327,Lane City,-999,29.2160836,-96.026346
1328,Somerset,1631,29.2263504,-98.6577985
1329,Danbury,1715,29.2282966,-95.3449365
1330,Lytle,2492,29.233294,-98.7964137
1331,Grand Isle,1296,29.2366172,-89.9872942
1332,Stockdale,1442,29.2369085,-97.9600036
1333,Concrete,-999,29.2383038,-97.2930444
1334,Pierce,-999,29.2391389,-96.1999623
1335,Pierson,1736,29.2394229,-81.4656252
1336,Cline,-999,29.2432935,-100.0828441
1337,Holly Hill,11659,29.2435916,-81.0375555
1338,Cocodrie,-999,29.246893,-90.661477
1339,Leeville,-999,29.2480048,-90.2075775
1340,Pandora,-999,29.250242,-97.8377781
1341,Gulf Hammock,-999,29.2530218,-82.7309452
1342,Kendrick,-999,29.2535858,-82.1678718
1343,Speaks,-999,29.2555277,-96.7002536
1344,Elmendorf,1488,29.2560731,-98.3327903
1345,Lajitas,-999,29.2615873,-103.776579
1346,Earle,-999,29.2632943,-98.4908494
1347,Boling,1122,29.264415,-95.9438434
1348,Nixon,2385,29.267464,-97.7644429
1349,Smiley,549,29.2677433,-97.6358283
1350,Venice,202,29.277165,-89.3547759
1351,Iago,161,29.2780259,-95.963844
1352,Pinto,-999,29.2813456,-100.5884173
1353,Morriston,164,29.281638,-82.4378804
1354,Ezzell,-999,29.2824702,-96.9008145
1355,Ormond Beach,38137,29.2858129,-81.0558894
1356,Yoakum,5815,29.2877469,-97.151931
1357,Von Ormy,1085,29.2891262,-98.6444649
1358,Anthony,-999,29.2894189,-82.1117588
1359,Damon,552,29.290523,-95.7346708
1360,Liverpool,482,29.2949612,-95.2788231
1361,Knippa,689,29.2952364,-99.6372742
1362,Southton,-999,29.296349,-98.4186257
1363,Village of Tiki Island,968,29.297088,-94.917089
1364,Galveston,47743,29.3013889,-94.7977778
1365,Fort Clark Springs,1228,29.3060681,-100.422023
1366,New Taiton,-999,29.3094149,-96.3416326
1367,LaCoste,1119,29.3099322,-98.8116254
1368,Brackettville,1688,29.3105125,-100.4178563
1369,La Coste,-999,29.3107917,-98.8100253
1370,Ellzey,-999,29.3110762,-82.7934485
1371,Wharton,8832,29.3116366,-96.1027371
1372,Hochheim,-999,29.3124676,-97.2916555
1373,Bonney,310,29.3166292,-95.4479962
1374,Seville,614,29.3169208,-81.4925714
1375,Sabinal,1695,29.3174576,-99.4664354
1376,Study Butte,233,29.3182532,-103.5307389
1377,Terlingua,58,29.321586,-103.6160191
1378,Otter Creek,134,29.3249653,-82.7717811
1379,Macdona,559,29.3257916,-98.6911329
1380,Bayou Vista,1537,29.3263467,-94.9385339
1381,Montbrook,-999,29.3271928,-82.4503813
1382,Suwannee,-999,29.3288499,-83.1442944
1383,D'Hanis,847,29.3305124,-99.2797627
1384,Lowell,-999,29.3305289,-82.1914845
1385,Sparr,-999,29.3385846,-82.1125927
1386,Triumph,216,29.339386,-89.4767232
1387,Williston Highlands,2275,29.3405248,-82.5414954
1388,Boothville,854,29.3435519,-89.4197772
1389,Guy,-999,29.3441332,-95.7830058
1390,Sweet Home,-999,29.3452449,-97.0716517
1391,Hondo,8803,29.3474565,-99.1414249
1392,Glen Flora,-999,29.3474691,-96.1932954
1393,Hitchcock,6961,29.3482905,-95.0160368
1394,Dunlay,-999,29.3485678,-98.9905867
1395,Ormond-by-the-Sea,7406,29.3491449,-81.0664455
1396,Salt Springs,-999,29.3510842,-81.7350812
1397,Buras,945,29.351886,-89.5242248
1398,Rosharon,1152,29.3521841,-95.460219
1399,Castroville,2680,29.3557903,-98.8786387
1400,La Vernia,1034,29.356348,-98.1155633
1401,Del Rio,35591,29.3627296,-100.896761
1402,Reddick,506,29.3666393,-82.1973184
1403,Favoretta,-999,29.3669221,-81.1747824
1404,La Marque,14509,29.3685674,-94.9713134
1405,Eureka,-999,29.3721952,-81.9045306
1406,Santa Fe,12222,29.3780129,-95.1057625
1407,Golden Meadow,2101,29.3791112,-90.2600787
1408,Port Bolivar,-999,29.3807901,-94.7643623
1409,Johnstone,-999,29.3813422,-100.7589797
1410,Arcadia,-999,29.3832908,-95.1202075
1411,Texas City,45099,29.383845,-94.9027002
1412,Sandy Point,-999,29.385517,-95.4810532
1413,Lackland Air Force Base,9918,29.3866929,-98.6179407
1414,Williston,2768,29.38747,-82.4467706
1415,Empire,993,29.3877189,-89.5972832
1416,Dulac,1463,29.3888318,-90.7139785
1417,China Grove,1179,29.3888459,-98.3489023
1418,Georgetown,-999,29.3913622,-81.6386889
1419,Hillcrest,730,29.3927369,-95.259379
1420,Hungerford,347,29.3991341,-96.0769031
1421,Needville,2823,29.3994101,-95.8377297
1422,Algoa,-999,29.4024576,-95.169376
1423,Nada,-999,29.4049674,-96.3863559
1424,Leesville,-999,29.4069038,-97.744999
1425,Korona,-999,29.4069212,-81.1964501
1426,Usher,-999,29.4074638,-82.816784
1427,Citra,-999,29.4119166,-82.1098156
1428,Saint Hedwig,2094,29.4144012,-98.2000099
1429,Bebe,-999,29.415238,-97.6372185
1430,Orange Lake,-999,29.4235826,-82.2167642
1431,Alvin,24236,29.4238472,-95.2441009
1432,San Antonio,1327407,29.4241219,-98.4936282
1433,Dupont,-999,29.4269207,-81.2225622
1434,Nairn,-999,29.4279955,-89.6108947
1435,Shiner,2069,29.4291304,-97.1705425
1436,Crescent City,1577,29.4302514,-81.5106288
1437,Fairchilds,763,29.431353,-95.7802282
1438,Cost,-999,29.4374607,-97.5288825
1439,Chauvin,2912,29.4385529,-90.5953651
1440,Riomedina,-999,29.4396769,-98.8841945
1441,Horseshoe Beach,169,29.4413454,-83.2873552
1442,Raleigh,373,29.4416359,-82.4662162
1443,Galliano,7676,29.4421645,-90.2992464
1444,Hallettsville,2550,29.4438528,-96.9410929
1445,Bronson,1113,29.4477445,-82.6423336
1446,McIntosh,452,29.44886,-82.2220424
1447,Garwood,-999,29.4496881,-96.3969118
1448,Redford,90,29.4499109,-104.1893657
1449,Juliff,-999,29.4502379,-95.4754979
1450,Kendleton,380,29.4507991,-95.9946785
1451,Island Grove,-999,29.4535825,-82.1064825
1452,Lake View,199,29.4552263,-100.9445412
1453,East Bronson,1945,29.4592966,-82.5905367
1454,Dickinson,18680,29.4607876,-95.0513173
1455,Theriot,-999,29.4613289,-90.7514799
1456,Manvel,5179,29.4627365,-95.357994
1457,Kirby,8000,29.4632876,-98.3855702
1458,New Berlin,511,29.4641219,-98.1011187
1459,Bunnell,2676,29.4660863,-81.2578416
1460,Montegut,1540,29.4743852,-90.5570308
1461,Terrell Hills,4878,29.4749535,-98.4508497
1462,Chiefland,2245,29.4749621,-82.8598421
1463,Flagler Beach,4484,29.4749754,-81.1270035
1464,Bolivar Peninsula,2417,29.4782878,-94.5799145
1465,Olmos Park,2237,29.4788422,-98.4875173
1466,Sublime,-999,29.478852,-96.7974777
1467,Welaka,701,29.4791378,-81.6714687
1468,Port Sulphur,1760,29.4804947,-89.6939531
1469,Iowa Colony,1170,29.4824589,-95.4154961
1470,San Leon,4970,29.4832863,-94.9221465
1471,Alamo Heights,7031,29.4849531,-98.4658502
1472,Zuehl,376,29.4855098,-98.1661203
1473,Sienna Plantation,13721,29.4860708,-95.5079991
1474,Balcones Heights,2941,29.4880086,-98.5516856
1475,Pleak,1044,29.4891295,-95.8077291
1476,Sheridan,-999,29.4935743,-96.6710854
1477,Leon Valley,10151,29.4952307,-98.6186317
1478,Concan,-999,29.4952315,-99.7125536
1479,Arcola,1642,29.4960702,-95.4657756
1480,Beasley,641,29.4974636,-95.9180099
1481,Thompsons,246,29.497738,-95.5849455
1482,Oak Forest,-999,29.4988467,-97.5847179
1483,Matthews,-999,29.4994091,-96.3227432
1484,Pomona Park,912,29.5002492,-81.5914659
1485,Gonzales,7237,29.5016257,-97.4524926
1486,Micanopy,600,29.504692,-82.2798227
1487,Bacliff,8619,29.5068965,-94.992427
1488,Espanola,-999,29.5071961,-81.3095106
1489,League City,83560,29.5074538,-95.0949303
1490,Lochloosa,-999,29.511637,-82.100372
1491,Santa Clara,725,29.5118979,-98.1213971
1492,Gilchrist,-999,29.5124537,-94.4890794
1493,Beverly Beach,338,29.5146969,-81.1445045
1494,Windcrest,5364,29.515508,-98.3802925
1495,Converse,18198,29.5180081,-98.3161241
1496,Happy Jack,-999,29.5218828,-89.7336763
1497,Breslau,-999,29.5230165,-96.9966499
1498,Castle Hills,4116,29.5232851,-98.5164071
1499,Belmont,-999,29.5232893,-97.6838872
1500,Friendswood,35805,29.5293998,-95.2010447
1501,Booth,-999,29.5299598,-95.6499471
1502,Archer,1118,29.5299677,-82.5189969
1503,Rock Island,-999,29.5310735,-96.5752497
1504,East Bernard,2272,29.5310744,-96.0710696
1505,Trammels,-999,29.5346807,-95.5374441
1506,Diamond,-999,29.5354938,-89.7620103
1507,Smith Point,-999,29.5368963,-94.7604746
1508,Webster,10400,29.5377315,-95.1182645
1509,Fresno,19069,29.5388465,-95.4474414
1510,Cut Off,5976,29.5427168,-90.3381361
1511,Kemah,1773,29.5427297,-95.0204837
1512,Nassau Bay,4002,29.5446753,-95.0910413
1513,Clear Lake Shores,1063,29.547452,-95.0321506
1514,Universal City,18530,29.5480071,-98.2911235
1515,Schertz,31465,29.5521737,-98.2697341
1516,Bourg,2579,29.5535491,-90.6023096
1517,Greatwood,11538,29.5541259,-95.6757811
1518,Satsuma,-999,29.5549701,-81.6559138
1519,Clear Lake City,-999,29.5552311,-95.1152088
1520,Lissie,-999,29.5560739,-96.2252407
1521,Dewalt,-999,29.5566247,-95.5566112
1522,Rosenberg,30618,29.5571825,-95.8085623
1523,Presidio,4426,29.5607383,-104.3721465
1524,Cibolo,15349,29.561618,-98.2269553
1525,El Lago,2706,29.5635631,-95.0452067
1526,Pearland,91252,29.5635666,-95.2860474
1527,Presquille,1807,29.5638263,-90.6461996
1528,Seabrook,11952,29.5641184,-95.0254839
1529,Live Oak,13131,29.5652286,-98.3364025
1530,High Island,-999,29.5668955,-94.3935217
1531,Seguin,25175,29.5688411,-97.9647269
1532,Marion,1066,29.5713402,-98.1402865
1533,Altair,-999,29.5713505,-96.4541355
1534,Larose,7400,29.572438,-90.3817483
1535,First Colony,-999,29.57468,-95.6085569
1536,Moulton,886,29.5749585,-97.1427643
1537,Taylor Lake Village,3544,29.5752298,-95.0502069
1538,Pointe _ la Hache,187,29.5763259,-89.7917328
1539,Helotes,7341,29.5780056,-98.6897451
1540,Cumings,981,29.5782928,-95.7988398
1541,Richmond,11679,29.5821811,-95.7607832
1542,Hill Country Village,985,29.5824497,-98.4908512
1543,Selma,5540,29.5843948,-98.3058463
1544,Shavano Park,3035,29.5849496,-98.5525194
1545,Palm Coast,75180,29.5849736,-81.2078411
1546,Southdown,-999,29.5868808,-90.7389798
1547,Brookside Village,1523,29.5868996,-95.3252152
1548,Eagle Lake,3639,29.5896836,-96.3335769
1549,Fanning Springs,764,29.5907915,-82.9292906
1550,Hawthorne,1417,29.5919136,-82.0873181
1551,McQueeney,2545,29.5921732,-98.0333396
1552,New Territory,15186,29.5941245,-95.680781
1553,Jay,-999,29.5952151,-90.4684172
1554,Houma,33727,29.5957696,-90.7195348
1555,Rochelle,-999,29.5966356,-82.2175999
1556,Fifth Street,2486,29.5982899,-95.5513331
1557,Saturn,-999,29.5988454,-97.343602
1558,Hollywood Park,3062,29.6005047,-98.48724
1559,Old Town,-999,29.6013454,-82.9817927
1560,Orchard,352,29.6041269,-95.9696778
1561,Lakehills,5150,29.604672,-98.943086
1562,Arredondo,-999,29.6049677,-82.4092726
1563,Davant,-999,29.6085472,-89.8484005
1564,Deer Range,-999,29.6091029,-89.8961797
1565,Bracken,-999,29.6099493,-98.3211244
1566,Trenton,1999,29.6132942,-82.8176203
1567,Utopia,227,29.6152274,-99.5269927
1568,Grey Forest,483,29.6155041,-98.6808563
1569,Stafford,17693,29.6160671,-95.5577221
1570,Lundy,-999,29.6183027,-81.6475816
1571,Missouri City,67358,29.6185669,-95.5377215
1572,Sugar Land,78817,29.6196787,-95.6349463
1573,Shoreacres,1493,29.6202287,-95.009928
1574,Interlachen,1403,29.6238574,-81.8903684
1575,Bayou Cane,19355,29.624102,-90.7512023
1576,Pecan Grove,15963,29.6260681,-95.7316156
1577,Bayside Terrace,-999,29.627173,-95.013817
1578,Wallis,1252,29.6313486,-96.0652362
1579,Ellendale,-999,29.6321567,-90.8092594
1580,Bayou Blue,12352,29.6340756,-90.6731553
1581,Cross City,1728,29.6343977,-83.1251306
1582,Garden Ridge,3259,29.6346708,-98.3052907
1583,Lake Medina Shores,1235,29.6383583,-98.9868847
1584,Shamrock,-999,29.6432861,-83.1448534
1585,Cross Mountain,3124,29.645503,-98.659467
1586,Comal,-999,29.6455041,-98.2236219
1587,Phoenix,-999,29.6460462,-89.9397916
1588,Lockport,2578,29.6460467,-90.5392524
1589,Newberry,4950,29.6463535,-82.6065023
1590,Kingsbury,782,29.6480061,-97.8280576
1591,Palatka,10558,29.6485801,-81.6375819
1592,Lockport Heights,1286,29.6504911,-90.5464747
1593,Meadows Place,4660,29.6513439,-95.5880005
1594,Gainesville,124354,29.6516344,-82.3248262
1595,Dominion,-999,29.6568915,-98.6164103
1596,East Palatka,1654,29.6583026,-81.5984139
1597,Oak Island,363,29.6613369,-94.6896401
1598,Beach City,2198,29.6621714,-94.8899241
1599,Geronimo,1032,29.6630045,-97.9669494
1600,South Houston,16983,29.663008,-95.2354902
1601,Jena,-999,29.6635601,-83.3701375
1602,Town West,-999,29.6638438,-95.6310571
1603,La Porte,33800,29.6657838,-95.0193729
1604,Harwood,-999,29.6657863,-97.5052724
1605,Amelia,2459,29.6663204,-91.1020449
1606,Campville,-999,29.6663568,-82.118432
1607,Lafitte,972,29.6668793,-90.1084073
1608,Ochoa,-999,29.6671219,-104.5007589
1609,Four Corners,12382,29.668566,-95.6577245
1610,Marineland,16,29.6688614,-81.213398
1611,Camp Wood,706,29.6693924,-100.0122911
1612,Steinhatchee,1047,29.6710597,-83.387638
1613,Ellsworth,-999,29.6732667,-90.8150928
1614,Lake Dunlap,1934,29.6757813,-98.0722295
1615,Clear Springs,-999,29.6760591,-98.0597292
1616,Morgan's Point,339,29.6764639,-95.0027252
1617,Bandera Falls,-999,29.6771699,-98.9633648
1618,Simonton,814,29.679402,-95.977178
1619,Luling,5411,29.6805066,-97.647498
1620,Dittlinger,-999,29.6810585,-98.1791765
1621,Schulenburg,2852,29.6819003,-96.9030366
1622,Weston Lakes,2482,29.683243,-95.935707
1623,Comstock,-999,29.6843804,-101.173438
1624,Mathews,2209,29.6863233,-90.5467525
1625,Gibson,-999,29.6868756,-90.990653
1626,Carlisle,-999,29.6868784,-89.9622919
1627,Siracusaville,422,29.687153,-91.1481573
1628,Flatonia,1383,29.6877325,-97.1085972
1629,Bayou Vista,4652,29.6896528,-91.2709383
1630,Fulshear,1134,29.6899563,-95.8996757
1631,Indian Pass,-999,29.6904903,-85.2643618
1632,Haile,-999,29.6905202,-82.5734464
1633,Pasadena,149043,29.6910625,-95.2091006
1634,Double Bayou,-999,29.6927249,-94.6290832
1635,Patterson,6112,29.6932641,-91.3020502
1636,Waelder,1065,29.6932868,-97.2991571
1637,Mission Bend,36501,29.6938429,-95.6649468
1638,Berwick,4946,29.6946526,-91.2189925
1639,Donner,-999,29.6957647,-90.9442629
1640,Gray,5584,29.6977108,-90.786481
1641,Summer Haven,-999,29.6991388,-81.2233987
1642,Morgan City,12404,29.6993748,-91.20677
1643,Glidden,661,29.7007899,-96.5863613
1644,New Braunfels,57740,29.7030024,-98.1244531
1645,Weimar,2151,29.7030111,-96.7805333
1646,Deer Park,32010,29.7052284,-95.1238204
1647,Timberwood Park,13447,29.7057789,-98.4783513
1648,Bellaire,16855,29.7057858,-95.4588299
1649,Southside Place,1715,29.7060634,-95.4368849
1650,Columbus,3655,29.7066232,-96.5396933
1651,Alleyton,-999,29.7066234,-96.4863586
1652,Scenic Oaks,4957,29.7107784,-98.6758568
1653,West University Place,14787,29.7180075,-95.4338292
1654,Hastings,580,29.7180248,-81.5081338
1655,Stairtown,-999,29.7182824,-97.7277779
1656,Wannee,-999,29.7185666,-82.9409595
1657,Orange Heights,-999,29.7196893,-82.139267
1658,Sabine,-999,29.7199416,-93.871554
1659,Barataria,1109,29.7232665,-90.1236852
1660,Pipe Creek,-999,29.7235571,-98.9358643
1661,Fairbanks,-999,29.7246894,-82.2639919
1662,Barksdale,-999,29.7252236,-100.0339596
1663,Apalachicola,2231,29.7257675,-84.9832435
1664,Bandera,857,29.7266131,-99.0736462
1665,Raceland,10193,29.7274331,-90.598976
1666,Leakey,425,29.7288351,-99.761448
1667,Florahome,-999,29.7327446,-81.8834269
1668,Sabine Pass,-999,29.7335518,-93.8943327
1669,Galena Park,10887,29.7335616,-95.2302123
1670,Baytown,71802,29.7355047,-94.9774274
1671,Jean Lafitte,1903,29.7360438,-90.1267408
1672,Eastpoint,2337,29.736601,-84.8785185
1673,Putnam Hall,-999,29.7366333,-81.9592635
1674,Gruene,-999,29.7382791,-98.103897
1675,Casa Piedra,-999,29.7385099,-104.0540851
1676,Hines,-999,29.7393928,-83.2365236
1677,Schriever,6853,29.7421537,-90.8103705
1678,Bulverde,4630,29.7438332,-98.4530729
1679,Vanderpool,-999,29.7452234,-99.5550504
1680,Fair Oaks Ranch,5986,29.7457771,-98.6433561
1681,Brazos Country,469,29.7538441,-96.0505136
1682,Bell,456,29.7555125,-82.8626239
1683,Fentress,-999,29.7560584,-97.7763901
1684,Centerville,-999,29.7596514,-91.4284423
1685,Piney Point Village,3125,29.759951,-95.5171646
1686,Armstrong,-999,29.7621914,-81.4478542
1687,Houston,2099451,29.7632836,-95.3632715
1688,Garden City,-999,29.7654849,-91.4656656
1689,Grand Chenier,-999,29.7668868,-92.9751469
1690,Lafourche,2002,29.7671535,-90.7659249
1691,Jacinto City,10553,29.7674495,-95.2338233
1692,Bunker Hill Village,3633,29.7674508,-95.5299427
1693,Crescent Beach,931,29.76886,-81.2536786
1694,Colony,-999,29.7691182,-97.1788769
1695,Hunters Creek Village,4367,29.7705062,-95.4954973
1696,Holly Beach,-999,29.7707791,-93.4593223
1697,Crown Point,-999,29.7721537,-90.0853506
1698,Anahuac,2243,29.7730001,-94.6826961
1699,Clark,-999,29.7732956,-82.6259497
1700,Bostwick,-999,29.774134,-81.637029
1701,Bertrandville,-999,29.7749312,-90.0170152
1702,Channelview,38289,29.7760599,-95.1146533
1703,Hedwig Village,2557,29.7774504,-95.5171645
1704,Tennille,-999,29.778002,-83.3259707
1705,Cloverleaf,22942,29.7782823,-95.1718772
1706,Bayou Country Club,1396,29.7799573,-90.7893866
1707,Sealy,6019,29.7807878,-96.1571834
1708,Staples,267,29.7813348,-97.8361137
1709,Addicks,-999,29.7824508,-95.6424457
1710,Swiss Alp,-999,29.7824523,-96.9094258
1711,Oakville,-999,29.7829866,-90.02646
1712,Intracoastal City,-999,29.7843773,-92.1562386
1713,Coady,-999,29.7843927,-95.0163174
1714,Monroe City,-999,29.7849442,-94.5851936
1715,Katy,14102,29.7857853,-95.8243956
1716,Brookshire,4702,29.7860643,-95.9510661
1717,Keystone Heights,1350,29.7860769,-82.0314892
1718,Williford,-999,29.7863471,-82.7912329
1719,Lynchburg,-999,29.7871704,-95.0554851
1720,Bayou Gauche,2071,29.7874316,-90.4131376
1721,Ward Ridge,-999,29.7885429,-85.2849181
1722,Waldo,1015,29.7896882,-82.1673248
1723,Spring Valley Village,3715,29.7898423,-95.5040761
1724,Stowell,1756,29.7899436,-94.3832443
1725,Hilshire Village,746,29.7907833,-95.4891081
1726,San Felipe,747,29.7930093,-96.1007929
1727,Carta Valley,-999,29.7935494,-100.6748151
1728,Boerne,10471,29.7946641,-98.7319703
1729,Cedar Grove,-999,29.7949306,-90.0222931
1730,Thibodaux,14566,29.7957633,-90.822871
1731,Franklin,7660,29.7960399,-91.5015002
1732,Creole,-999,29.7960529,-93.1112612
1733,Medina,-999,29.7966102,-99.2464297
1734,Alachua,9059,29.79724917,-82.49488158
1735,Cameron,406,29.7977212,-93.3251536
1736,McNair,-999,29.8041142,-95.0215952
1737,Glencoe,211,29.8057626,-91.6678929
1738,Hunter,-999,29.8071657,-98.0236176
1739,Dalcour,-999,29.8074302,-89.9986813
1740,Weeks,-999,29.8077075,-91.8070626
1741,Langtry,-999,29.8085361,-101.5587249
1742,Redwood,4338,29.8102221,-97.9113931
1743,Vermont Heights,-999,29.8102469,-81.3970193
1744,Saint Augustine Shores,7359,29.8108033,-81.3103487
1745,Port Saint Joe,3445,29.8118757,-85.302974
1746,Vance,-999,29.8157754,-100.0136822
1747,Cistern,-999,29.815783,-97.2186
1748,Muldoon,-999,29.8157838,-97.0710965
1749,Highlands,7522,29.818836,-95.0560404
1750,Stella,-999,29.8193743,-89.9959034
1751,Shafter,-999,29.8201733,-104.3032532
1752,Winnie,3254,29.8202205,-94.3840777
1753,Hopedale,-999,29.8204841,-89.6567253
1754,Creels,-999,29.8218757,-84.9090759
1755,Laurel Grove,-999,29.8238175,-90.8789838
1756,Des Allemands,2505,29.8238196,-90.4750838
1757,Pattison,472,29.8252297,-95.9949564
1758,High Springs,5350,29.8269064,-82.5967832
1759,Cove,510,29.8274438,-94.8024219
1760,Delhi,-999,29.8274481,-97.3955486
1761,Concession,-999,29.8310406,-90.0039592
1762,Reggio,-999,29.8313178,-89.7545058
1763,Forked Island,-999,29.831322,-92.3001311
1764,Theressa,-999,29.8352428,-82.0706575
1765,Beaumont Place,-999,29.8371693,-95.1996551
1766,Labadieville,1854,29.8374275,-90.9562081
1767,Baldwin,2436,29.8379836,-91.5442793
1768,Highland View,-999,29.837986,-85.3157519
1769,Ellinger,-999,29.8393953,-96.7052536
1770,Yscloskey,-999,29.8418726,-89.6883926
1771,Houmont Park,-999,29.842447,-95.206322
1772,La Crosse,360,29.8432977,-82.404833
1773,Scarsdale,-999,29.8452068,-89.9778471
1774,Martindale,1116,29.8454994,-97.8408364
1775,Cat Spring,-999,29.8455074,-96.3257991
1776,Estelle,16377,29.8457628,-90.1067399
1777,Hatchbend,-999,29.847176,-82.9181821
1778,Mont Belvieu,3835,29.8477222,-94.890758
1779,Dekle Beach,-999,29.8491073,-83.6193132
1780,Saint Augustine Beach,6176,29.8505254,-81.2653473
1781,Shell Beach,-999,29.8532611,-89.6795032
1782,Carrabelle,2778,29.8532645,-84.664348
1783,Belle Chasse,12679,29.8549287,-89.9906253
1784,Hankamer,-999,29.8582755,-94.6268618
1785,Supreme,1052,29.8593713,-90.9812088
1786,Peters,-999,29.8599512,-96.1866286
1787,Verret,-999,29.8618724,-89.7797842
1788,Taylor Landing,228,29.86222,-94.131081
1789,Caernarvon,-999,29.8638171,-89.9064555
1790,Hampton,500,29.8644091,-82.1309371
1791,Braithwaite,-999,29.8663171,-89.9436791
1792,Toca,-999,29.8665946,-89.8364529
1793,Kraemer,934,29.8668733,-90.6970344
1794,Saint Bernard,-999,29.8671501,-89.858676
1795,Sheldon,1990,29.8680014,-95.1282643
1796,Old River-Winfree,1245,29.8682764,-94.8327007
1797,Percle,-999,29.8685375,-91.0117653
1798,Poydras,2351,29.8693724,-89.8889549
1799,Saint Clair,-999,29.8699282,-89.9689578
1800,Canyon Lake,21262,29.8752177,-98.2625127
1801,English Turn,-999,29.8754836,-89.9650687
1802,Plata,-999,29.8762836,-104.0176921
1803,Paradis,1298,29.8796513,-90.4339715
1804,Barrett,3199,29.8799451,-95.0629848
1805,Maxwell,-999,29.8810542,-97.7933357
1806,Charenton,1903,29.8815936,-91.5251127
1807,Henry,-999,29.8832631,-92.0784579
1808,San Marcos,44894,29.8832749,-97.9413941
1809,Chackbay,5177,29.8835389,-90.7973151
1810,Lanark Village,-999,29.8835413,-84.5957359
1811,Santa Fe,-999,29.8835746,-82.4303905
1812,White City,-999,29.8840955,-85.2199164
1813,Lockhart,12698,29.8849441,-97.6699996
1814,String Prairie,-999,29.8857799,-97.3469366
1815,Magnolia Gardens,-999,29.8866118,-95.1127082
1816,Salem,-999,29.8868872,-83.4129186
1817,Jersey Village,7620,29.887725,-95.5629984
1818,Sunny Side,-999,29.8885606,-96.0691253
1819,Brooker,338,29.8888528,-82.3326095
1820,Sorrel,766,29.8890938,-91.6167809
1821,Spring Branch,-999,29.8899389,-98.4252957
1822,Mount Houston,-999,29.891057,-95.3057687
1823,New Ulm,-999,29.8921715,-96.4902479
1824,Camp Verde,-999,29.8938289,-99.1047602
1825,Saint Augustine,12975,29.894691,-81.314517
1826,Violet,4973,29.8957605,-89.8978439
1827,Port Arthur,53818,29.8988258,-93.9287815
1828,Marrero,33141,29.8993723,-90.1003506
1829,Boutte,3075,29.9024284,-90.3881369
1830,Satsuma,-999,29.9032802,-95.6032773
1831,Harvey,20348,29.9035387,-90.0772944
1832,Avery Island,-999,29.9035392,-91.9103979
1833,La Grange,4641,29.9055033,-96.876647
1834,Fayetteville,258,29.9057817,-96.6727528
1835,Westwego,8534,29.9060388,-90.1422962
1836,Mimosa Park,-999,29.9063172,-90.3561914
1837,Terrytown,23319,29.910205,-90.0325709
1838,Jeanerette,5530,29.9110378,-91.6634483
1839,Crosby,2299,29.9118885,-95.0621512
1840,Kinwood,-999,29.9118897,-95.3024351
1841,Avondale,4954,29.9129834,-90.2036869
1842,Gretna,17736,29.9146493,-90.0539604
1843,Sampson,-999,29.9166304,-82.2078843
1844,Loma Alta,-999,29.9179872,-100.7745429
1845,Waggaman,10015,29.9185388,-90.2109093
1846,Vilano Beach,2678,29.9188576,-81.2928499
1847,Lydia,952,29.9193716,-91.7953951
1848,Beacon Hill,-999,29.9229839,-85.3857535
1849,Fort White,567,29.9232908,-82.7137327
1850,North Houston,-999,29.9255014,-95.5152189
1851,Fannett,2252,29.9260505,-94.2507407
1852,Dale,528,29.9274436,-97.5644418
1853,Lone Star,-999,29.9277055,-90.3406354
1854,Rosanky,-999,29.9293898,-97.293602
1855,Worthington Springs,181,29.9294072,-82.4234469
1856,Cooks Hammock,-999,29.929667,-83.2765264
1857,Saint Teresa,-999,29.9307625,-84.4540665
1858,Luling,12119,29.9321498,-90.3664695
1859,Aldine,15869,29.932445,-95.3802149
1860,Meraux,5816,29.9329817,-89.9497901
1861,Bridge City,7706,29.9332605,-90.1700748
1862,Napoleonville,660,29.9404803,-91.0248214
1863,Harahan,9277,29.9404826,-90.2031313
1864,Chalmette,16751,29.9427037,-89.9634017
1865,Destrehan,11535,29.9429828,-90.3517469
1866,Pumpville,-999,29.9435303,-101.7376204
1867,West Point,-999,29.9438347,-97.0369289
1868,Center Point,-999,29.9441051,-99.036426
1869,Starke,5449,29.9441298,-82.1098275
1870,Saint Rose,8122,29.9468716,-90.3231349
1871,Rutersville,-999,29.9477242,-96.7972005
1872,Mexico Beach,1072,29.9479833,-85.4179766
1873,Delcambre,1866,29.948261,-91.9887328
1874,Groves,16144,29.9482695,-93.9171155
1875,Perry,-999,29.9485399,-92.1570706
1876,Bellville,4097,29.9502253,-96.2571858
1877,Togo,-999,29.9505005,-97.2191558
1878,Waring,-999,29.9507704,-98.8030859
1879,Ama,1316,29.9521491,-90.2964674
1880,Arabi,3635,29.9543702,-90.0053477
1881,New Orleans,343829,29.9546482,-90.075072
1882,Uhland,1014,29.9577184,-97.7861137
1883,Erath,2114,29.9582611,-92.0359562
1884,Branford,712,29.9591183,-82.9281833
1885,Red Rock,-999,29.9596656,-97.4461058
1886,River Ridge,13494,29.9602043,-90.2156316
1887,New River,-999,29.9610739,-82.2653869
1888,Pierre Part,3169,29.9652016,-91.2031593
1889,Dukes,-999,29.9663511,-82.4073362
1890,Jefferson,11193,29.96760615,-90.1562679
1891,Comfort,2363,29.967715,-98.9050337
1892,Malvado,-999,29.9679729,-101.8681801
1893,Industry,304,29.9724459,-96.5021927
1894,Jefferson Island,-999,29.9727048,-91.9756768
1895,Nederland,17547,29.9743803,-93.9923965
1896,Abbeville,12257,29.9746502,-92.1342921
1897,Hahnville,3344,29.9765931,-90.4089708
1898,Fischer,-999,29.9768804,-98.2658468
1899,New Sarpy,1464,29.9779819,-90.387859
1900,Penney Farms,749,29.9796854,-81.8103743
1901,Saint James,828,29.9818694,-90.8317608
1902,Kingsley,-999,29.981907,-81.995937
1903,Ruidosa,-999,29.9829412,-104.67937
1904,Metairie,138481,29.9840922,-90.1528519
1905,Athena,-999,29.9879937,-83.4943108
1906,Kyle,28016,29.9891052,-97.8772267
1907,Paincourtville,911,29.9902013,-91.0551001
1908,Taft,63,29.9913149,-90.4481387
1909,Port Neches,13040,29.9913244,-93.9585067
1910,Green Cove Springs,6908,29.9919085,-81.6781467
1911,Kenner,66702,29.9940924,-90.2417434
1912,Central Gardens,4347,29.9954913,-94.0140644
1913,Hackberry,1261,29.9960464,-93.3420996
1914,Wimberley,2626,29.9974362,-98.0986204
1915,Kaplan,4600,29.997984,-92.2848515
1916,Atascocita,65844,29.9988306,-95.1765978
1917,Humble,15133,29.9988312,-95.2621553
1918,Norco,3074,29.9990924,-90.4123042
1919,Moonshine Hill,-999,30.0029976,-95.2363214
1920,New Iberia,30617,30.0035365,-91.8187285
1921,Mendoza,-999,30.00494,-97.6861117
1922,Dalkeith,-999,30.0057585,-85.154082
1923,Killona,793,30.0060367,-90.482862
1924,Montz,1918,30.0068701,-90.4686949
1925,Bammel,-999,30.0068875,-95.4635502
1926,Smithville,3817,30.0085542,-97.1594321
1927,Niederwald,565,30.009384,-97.7280573
1928,Vacherie,-999,30.0110358,-90.7195356
1929,Upton,-999,30.0113316,-97.2641571
1930,Kohrville,-999,30.0121654,-95.5854984
1931,Rocksprings,1182,30.0157647,-100.2053582
1932,Pinland,-999,30.0179926,-83.5279233
1933,Stilson,-999,30.0188282,-94.9188142
1934,Westfield,-999,30.0199424,-95.4021595
1935,Sumatra,148,30.0202022,-84.9790797
1936,Convent,711,30.0207573,-90.8298165
1937,Meaux,-999,30.0207608,-92.1826264
1938,Bridge City,7840,30.0207678,-93.8457255
1939,Shelby,-999,30.0216106,-96.5983064
1940,South Ponte Vedra Beach,-999,30.0224671,-81.3236866
1941,Lake Butler,1897,30.0227391,-82.3395574
1942,Gueydan,1398,30.0260404,-92.5084692
1943,Paulina,1178,30.0263132,-90.7131467
1944,Hockley,-999,30.0268875,-95.8443958
1945,Huffman,-999,30.0271626,-95.0857627
1946,Devers,447,30.0274371,-94.5915841
1947,Woodcreek,1457,30.0282683,-98.1111211
1948,Cochran,-999,30.0288326,-96.1294045
1949,Grand Lake,-999,30.0307676,-93.2720984
1950,Kingwood,-999,30.0335526,-95.2610444
1951,Nome,588,30.03577,-94.4243572
1952,Mountain City,648,30.037159,-97.8869497
1953,Panacea,816,30.0374268,-84.3876768
1954,O'Brien,-999,30.0382835,-82.9401286
1955,Lutcher,3559,30.0404796,-90.6989797
1956,Wallace,671,30.0432575,-90.6673121
1957,Edgard,2441,30.0432578,-90.5600869
1958,Lawtey,730,30.0441284,-82.0717733
1959,Dryden,-999,30.0446355,-102.1145776
1960,Dayton,7242,30.0466051,-94.8852026
1961,Gramercy,3613,30.0474239,-90.6898128
1962,Kerrville,22347,30.0474332,-99.1403189
1963,Kenney,-999,30.047721,-96.3269097
1964,China,1160,30.047992,-94.3357433
1965,Belle Rose,1902,30.0504778,-91.0414892
1966,Hills Prairie,-999,30.0516079,-97.2919358
1967,Mayo,1237,30.053001,-83.1748578
1968,Alton,-999,30.0530017,-83.1379122
1969,Reserve,9766,30.0538131,-90.5517534
1970,Ames,1003,30.0538261,-94.7435327
1971,Warda,-999,30.0552201,-96.9138702
1972,Eastgate,-999,30.0554946,-95.0118723
1973,Garyville,2811,30.056035,-90.6192554
1974,Russell,-999,30.0563517,-81.7473176
1975,Loreauville,887,30.0565906,-91.7370595
1976,Waller,2326,30.0566085,-95.9268986
1977,Mustang Ridge,861,30.0568828,-97.6911124
1978,Honeyville,-999,30.0579795,-85.1899158
1979,Liberty,8397,30.057993,-94.7954784
1980,Pine Island,988,30.0579976,-96.0374576
1981,Welcome,800,30.0593673,-90.868429
1982,Sopchoppy,457,30.0599251,-84.4887917
1983,Grand Point,2473,30.0613122,-90.7534258
1984,Romeville,130,30.0624228,-90.8467618
1985,Raiford,255,30.0638497,-82.2364997
1986,Round Top,90,30.0652201,-96.6960867
1987,Hilden,-999,30.0657991,-81.4400816
1988,Laplace,29872,30.0665907,-90.4800848
1989,Middleburg,13008,30.0688512,-81.8603778
1990,Foley,-999,30.0693809,-83.5307016
1991,Belle Terre,-999,30.069644,-91.0159331
1992,Hunt,-999,30.070764,-99.3378238
1993,Sanborn,-999,30.0718691,-84.6043499
1994,Columbia,-999,30.0738438,-82.6956787
1995,Ingram,1804,30.0774307,-99.2403213
1996,Spring,54298,30.0799405,-95.4171601
1997,Lake Arthur,2738,30.080764,-92.6715308
1998,West Orange,3443,30.0821548,-93.7582224
1999,Medart,-999,30.0827039,-84.3871216
2000,Andrew,-999,30.0849269,-92.2429057
2001,Buda,7295,30.0852135,-97.8402827
2002,Hampton Springs,-999,30.0854902,-83.6548724
2003,Beaumont,118296,30.0860459,-94.1018461
2004,Union,892,30.0871441,-90.9048191
2005,Cedar Creek,-999,30.0871611,-97.5008303
2006,Cade,1723,30.0874245,-91.9053964
2007,Durbin,-999,30.0874654,-81.4611941
2008,Creedmoor,202,30.0899368,-97.7338917
2009,Orange,18595,30.0929879,-93.7365549
2010,Prairie View,5576,30.0932737,-95.9877339
2011,Tomball,10753,30.0971621,-95.6160549
2012,Hempstead,5770,30.0974405,-96.0782918
2013,Blanco,1739,30.0979862,-98.4214095
2014,Youngsville,8105,30.0996471,-91.9901206
2015,Doctors Inlet,-999,30.1002403,-81.7762083
2016,Donaldsonville,7436,30.1010323,-90.9928773
2017,Rose City,502,30.1027119,-94.0518443
2018,Milton,3030,30.1038143,-92.0765119
2019,Pinehurst,2097,30.1071543,-93.7746117
2020,Lulu,-999,30.1074582,-82.4912303
2021,Frenier,-999,30.1077008,-90.4267503
2022,Smoke Bend,-999,30.108532,-91.0203781
2023,Maurice,964,30.1085368,-92.1245688
2024,Hayes,780,30.1088194,-92.92015
2025,Kenefick,563,30.1091033,-94.8582582
2026,Lemannville,860,30.1093658,-90.9203754
2027,Wakulla Beach,-999,30.1093717,-84.2590619
2028,Bastrop,7218,30.1104947,-97.3152701
2029,Fruit Cove,29362,30.1110746,-81.641758
2030,Highland,-999,30.1124613,-82.045663
2031,Wewahitchka,1981,30.1127004,-85.2004716
2032,Bell City,-999,30.1132638,-92.9626512
2033,Daisetta,966,30.1132688,-94.642975
2034,Perry,7017,30.1174351,-83.5818147
2035,Grayburg,-999,30.1210459,-94.4113016
2036,Morse,812,30.1218726,-92.4981911
2037,Luraville,-999,30.122445,-83.1693026
2038,Hays,217,30.1227118,-97.8722281
2039,Driftwood,144,30.1229876,-98.0308425
2040,Saint Martinville,6114,30.1252011,-91.8334498
2041,Wyldwood,2505,30.1293821,-97.4727743
2042,Coteau Holmes,-999,30.1299225,-91.7262254
2043,Parker,4317,30.1310353,-85.6032595
2044,Vidor,10579,30.1316001,-94.0154542
2045,Onion Creek,-999,30.1366014,-97.7841711
2046,Candelaria,-999,30.1384901,-104.6854822
2047,Burnside,-999,30.1388095,-90.9239868
2048,McAlpin,-999,30.1391155,-82.9517959
2049,Sour Lake,1813,30.1402122,-94.4110239
2050,Manchaca,1133,30.1407673,-97.833061
2051,Sanderson,837,30.1424083,-102.3940324
2052,Chappell Hill,-999,30.1427171,-96.2569071
2053,Dayton Lakes,93,30.1446577,-94.8221464
2054,Stagecoach,538,30.1454934,-95.713558
2055,San Leanna,497,30.1457673,-97.8180608
2056,Hull,669,30.1463235,-94.6424197
2057,Broussard,8197,30.147146,-91.9612306
2058,Emerson,-999,30.1487958,-102.5362588
2059,Carmine,250,30.1493838,-96.6860862
2060,Bevil Oaks,1274,30.1502123,-94.2696305
2061,Juno,-999,30.1518602,-101.1153848
2062,Porter Heights,1653,30.151883,-95.3218803
2063,Hardin,819,30.1524348,-94.739089
2064,Callaway,14405,30.1529791,-85.5699252
2065,Springfield,8903,30.1532572,-85.6113154
2066,Wilma,-999,30.1543663,-84.9643583
2067,New Caney,-999,30.155216,-95.2113221
2068,The Woodlands,93847,30.1579935,-95.4893845
2069,Panama City,36484,30.1588129,-85.6602058
2070,Oak Ridge North,3049,30.1602158,-95.4443834
2071,Circle D-KC Estates,2393,30.1610157,-97.2349344
2072,Saint Marks,293,30.1610379,-84.2062825
2073,Longfellow,-999,30.1618502,-102.6384838
2074,Bayou Sorrel,-999,30.1618646,-91.3356646
2075,Little Cypress,-999,30.1646529,-93.7559998
2076,Shady Hollow,5004,30.1649327,-97.8622284
2077,Hugh,-999,30.1657944,-82.032886
2078,Orange Park,8412,30.1660736,-81.706484
2079,Brenham,15716,30.1668828,-96.3977442
2080,Chateau Woods,-999,30.1685489,-95.422994
2081,Carlyss,4670,30.1688187,-93.3759893
2082,White Castle,1883,30.1699194,-91.1470487
2083,Modeste,-999,30.1710306,-91.014823
2084,Cedar Grove,3397,30.1710346,-85.6252047
2085,Pinehurst,4624,30.1710479,-95.6824459
2086,Mountain Home,-999,30.1746467,-99.3803267
2087,Tanglewood Forest,-999,30.1746548,-97.8391726
2088,Crawfordville,3702,30.1760358,-84.3751778
2089,Panama City Beach,12018,30.1765914,-85.8054879
2090,Meadowbrook Terrace,-999,30.1774622,-81.7345409
2091,Palm Valley,20019,30.1774649,-81.3875817
2092,Tamina,-999,30.1785485,-95.4416056
2093,Roman Forest,1538,30.1791039,-95.1624323
2094,Shenandoah,2134,30.1802151,-95.4557726
2095,Estherwood,889,30.1807606,-92.4643012
2096,Woodbranch,1282,30.1810485,-95.1888218
2097,Pine Forest,487,30.1813215,-94.0343441
2098,Prien,7810,30.1818739,-93.2737655
2099,Burton,300,30.1821602,-96.5955277
2100,Giddings,4881,30.1827159,-96.936371
2101,Sorrento,1401,30.1843642,-90.8592632
2102,Garfield,1698,30.187435,-97.5577771
2103,Tinaja,-999,30.188775,-103.9776833
2104,Bear Creek,382,30.1890973,-97.9447303
2105,Boyd,-999,30.1891005,-83.6065385
2106,Lake City,12046,30.1896756,-82.6392899
2107,Mermentau,661,30.1899281,-92.5826383
2108,Dripping Springs,1788,30.1902067,-98.0866781
2109,Vinton,3212,30.1907628,-93.5812717
2110,Camp Swift,6383,30.19077,-97.2922144
2111,Watertown,2829,30.1924537,-82.6145673
2112,Patton Village,1557,30.1929925,-95.1688214
2113,Albert,-999,30.1938154,-98.6016958
2114,Day,116,30.1941083,-83.2912516
2115,Henly,-999,30.1946495,-98.2108481
2116,Loeb,-999,30.1946555,-94.1929612
2117,Newport,-999,30.1993709,-84.1807263
2118,Hiland Park,-999,30.2010339,-85.6268714
2119,Mauriceville,3252,30.2035419,-93.8662819
2120,Olustee,-999,30.2041226,-82.42873
2121,Geismar,-999,30.2043633,-91.0226013
2122,Marathon,430,30.2051688,-103.2446205
2123,Five Points,1265,30.2091197,-82.6373457
2124,Magnolia,1393,30.2093794,-95.7507815
2125,Bayou Goula,612,30.2099185,-91.1689942
2126,Paige,-999,30.2102146,-97.1149872
2127,Del Valle,-999,30.2107669,-97.6547243
2128,Crowley,13265,30.2140928,-92.3745761
2129,Parks,653,30.2143661,-91.83206
2130,Catahoula,1094,30.2146431,-91.7090023
2131,Plum Grove,600,30.2146577,-95.0949311
2132,Morris Ranch,-999,30.2171484,-99.0122646
2133,Carville,-999,30.2174184,-91.0962145
2134,Woodloch,207,30.2179919,-95.414105
2135,Acy,-999,30.2188079,-90.8203734
2136,Vilas,-999,30.2190876,-84.8857463
2137,Blumenthal,-999,30.2218701,-98.7417016
2138,Jennings,10383,30.2224284,-92.657085
2139,Lafayette,120623,30.2240897,-92.0198427
2140,Ansley,-999,30.2251968,-89.4836622
2141,Sunset Valley,749,30.2257648,-97.803617
2142,Lake Charles,71993,30.2265949,-93.2173759
2143,Orange,-999,30.227698,-85.0249153
2144,Fort Morgan,-999,30.2285373,-88.023053
2145,Webberville,392,30.231045,-97.5166653
2146,Wellborn,-999,30.2310609,-82.8195716
2147,Edgerly,-999,30.2327056,-93.5059913
2148,Splendora,1615,30.2329914,-95.1610438
2149,Rayne,7953,30.234925,-92.2684617
2150,Lacassine,480,30.235485,-92.9215367
2151,Oak Hill,-999,30.2354859,-97.860007
2152,Scott,8614,30.2357569,-92.0945672
2153,Duson,1716,30.2357577,-92.1854035
2154,Stonewall,505,30.2360359,-98.6644769
2155,Welsh,3226,30.2360403,-92.8226453
2156,Sulphur,20410,30.2365943,-93.3773783
2157,Wakulla,-999,30.2368696,-84.2310065
2158,Egan,631,30.2368713,-92.505969
2159,Roanoke,546,30.2368736,-92.7470878
2160,Iowa,2996,30.2368739,-93.0137611
2161,Gonzales,9781,30.2385294,-90.9200987
2162,Laguna Beach,3932,30.2396463,-85.9241025
2163,Ponte Vedra Beach,-999,30.2396865,-81.3856384
2164,Westlake,4568,30.2421496,-93.2507099
2165,Hye,-999,30.2424244,-98.570029
2166,Dowling Park,-999,30.2435538,-83.2362505
2167,Lynn Haven,18493,30.2454776,-85.648261
2168,Gulf Shores,9741,30.2460361,-87.7008193
2169,Pearlington,1332,30.2465843,-89.6111673
2170,Lakeshore,-999,30.2465856,-89.4358827
2171,Moss Hill,-999,30.2474326,-94.74159
2172,Hornsby Bend,6791,30.2474328,-97.5833339
2173,Crescent,959,30.2476958,-91.2873308
2174,Batson,-999,30.2493767,-94.6071417
2175,Sanderson,-999,30.2521786,-82.2728938
2176,Gasque,-999,30.2532585,-87.8197124
2177,Dauphin Island,1238,30.2554811,-88.1097217
2178,Goosport,-999,30.2568721,-93.1804309
2179,Houston,-999,30.2568926,-82.9026289
2180,Saint Gabriel,6677,30.2576953,-91.0992706
2181,Todd Mission,107,30.2615994,-95.8302284
2182,Evangeline,-999,30.2624271,-92.5706934
2183,Bayou George,-999,30.2626986,-85.5399244
2184,Winfield,-999,30.2630065,-82.6859584
2185,Kinard,-999,30.26516986,-85.24088305
2186,Lumberton,11943,30.2657655,-94.1996286
2187,Austin,790390,30.267153,-97.7430608
2188,Courtney,-999,30.2671552,-96.0599572
2189,Newburn,-999,30.2724437,-83.1406917
2190,Breaux Bridge,8139,30.2735323,-91.8992837
2191,Slidell,27068,30.2751945,-89.7811745
2192,Fredericksburg,10530,30.2752011,-98.8719843
2193,Glen Saint Mary,437,30.2757913,-82.1606689
2194,Ossun,2144,30.2760341,-92.1123453
2195,Johnson City,1656,30.2768676,-98.4119677
2196,Rollingwood,1412,30.2768742,-97.7911175
2197,Seymourville,-999,30.2774169,-91.2237185
2198,Butte La Rose,-999,30.2776976,-91.6867798
2199,Macclenny,6374,30.2821807,-82.1220569
2200,McDade,685,30.2838227,-97.237769
2201,Saratoga,-999,30.2840982,-94.5293622
2202,Barton Creek,3077,30.285206,-97.8691748
2203,Waveland,6435,30.2868632,-89.3761587
2204,Lincoln,-999,30.2874348,-96.9633164
2205,Shady Grove,-999,30.2879876,-83.6318182
2206,Nopal,-999,30.2882167,-103.9265692
2207,Whitehall,-999,30.2885287,-90.7003707
2208,Plaquemine,7119,30.2890833,-91.2342744
2209,Southport,-999,30.2893655,-85.6404834
2210,Manchac,-999,30.2901963,-90.4017516
2211,West Bay,-999,30.2918668,-85.8596562
2212,Woodlawn,-999,30.2929838,-92.9584821
2213,Orange Beach,5441,30.2943681,-87.5735935
2214,Jacksonville Beach,21362,30.2946859,-81.3931396
2215,Live Oak,6850,30.2949457,-82.98402
2216,French Settlement,1116,30.295195,-90.7950955
2217,Lost Creek,4509,30.2954838,-97.8444523
2218,Iberville,-999,30.2960276,-91.1167713
2219,Deweyville,1023,30.2977058,-93.7435004
2220,West Lake Hills,3063,30.2979843,-97.8019515
2221,Harper,1192,30.2999195,-99.2442144
2222,Eridu,-999,30.3018747,-83.7471001
2223,Moss Bluff,11557,30.3027042,-93.1907097
2224,Baldwin,1425,30.3027384,-81.9753865
2225,Prairieville,26895,30.3029721,-90.9720451
2226,Resota Beach,-999,30.3035314,-85.5935377
2227,Quarry,-999,30.3077111,-96.5105241
2228,Marfa,1981,30.3079384,-104.0190718
2229,Bee Cave,3925,30.3085373,-97.94501
2230,Bay Saint Louis,9260,30.3088076,-89.3300461
2231,Henderson Point,170,30.308808,-89.2869888
2232,Conroe,56207,30.3118769,-95.4560512
2233,Neptune Beach,7037,30.311908,-81.3964734
2234,Henderson,1674,30.3132529,-91.7903923
2235,Lacombe,8679,30.3135288,-89.9431264
2236,Woodville,2978,30.3140907,-84.2473969
2237,Starks,664,30.3154826,-93.6618318
2238,Pass Christian,4613,30.3157527,-89.247543
2239,Carencro,7526,30.317144,-92.0490096
2240,Seagrove Beach,-999,30.3185341,-86.1302189
2241,Independence,-999,30.319377,-96.3466306
2242,Littig,-999,30.3196533,-97.4494422
2243,Butler,-999,30.3207655,-97.2966599
2244,Keenan,-999,30.321042,-95.6455007
2245,Maxie,-999,30.3252026,-92.4079103
2246,Washington,-999,30.3252093,-96.1566258
2247,Vicksburg,-999,30.3257537,-85.664651
2248,Fostoria,-999,30.3263211,-95.1663233
2249,Telegraph,-999,30.3274155,-99.9061814
2250,Haaswood,-999,30.3288047,-89.7445073
2251,White Springs,777,30.3296697,-82.7590165
2252,Alton,-999,30.3307493,-89.762008
2253,Iota,1500,30.3313143,-92.495691
2254,Jacksonville,821784,30.3321838,-81.655651
2255,Buhler,-999,30.3329808,-93.3621026
2256,Cut and Shoot,1070,30.3332654,-95.357994
2257,Port Vincent,741,30.333805,-90.8495418
2258,Atlantic Beach,12655,30.3344077,-81.398696
2259,Cecilia,1980,30.3371419,-91.8531715
2260,Blue Mountain Beach,-999,30.3374227,-86.1971649
2261,Perdido Beach,581,30.3407558,-87.5049805
2262,Manor,5037,30.3407629,-97.5569456
2263,Cleveland,7675,30.34132,-95.0854885
2264,Stoneham,-999,30.3418743,-95.9124528
2265,North Cleveland,247,30.3418759,-95.1418787
2266,Saint Joe,-999,30.3446379,-89.7561748
2267,Gardere,10580,30.3457487,-91.1401055
2268,Cankton,484,30.3460331,-92.1095669
2269,Somerville,1376,30.3460432,-96.5283023
2270,The Hills,2472,30.3479797,-97.9850117
2271,Branch,388,30.3488122,-92.2676277
2272,Silsbee,6611,30.3490976,-94.1779624
2273,Hathaway,-999,30.3496484,-92.6715301
2274,Elgin,8135,30.3496528,-97.3702735
2275,Long Beach,14792,30.3504751,-89.1528176
2276,Telogia,-999,30.3507524,-84.8190802
2277,Sirmans,-999,30.3507642,-83.6568201
2278,Addis,3593,30.3538043,-91.2653865
2279,Heron Bay,-999,30.3546444,-88.1302777
2280,Evadale,1483,30.3549303,-94.072681
2281,Dime Box,-999,30.3565993,-96.8224791
2282,Gulf Breeze,5763,30.3571438,-87.1638574
2283,Mandeville,11560,30.3582506,-90.0656311
2284,Alpine,5905,30.3584919,-103.6610115
2285,Wacissa,386,30.3585373,-83.9871096
2286,Killian,1206,30.3588054,-90.5862016
2287,Sandy,-999,30.3607528,-98.469471
2288,Falmouth,-999,30.3629967,-83.1312484
2289,Youngstown,-999,30.3643628,-85.4382568
2290,Dobbin,-999,30.3654842,-95.7760598
2291,Pascagoula,22392,30.3657552,-88.5561272
2292,Fenton,379,30.3671485,-92.918204
2293,Gulfport,67793,30.3674198,-89.0928155
2294,Lakeway,11391,30.3679788,-97.991679
2295,Frink,-999,30.3685289,-85.2140857
2296,Lewisburg,-999,30.3696392,-90.1031324
2297,Kountze,2123,30.3715975,-94.3124116
2298,Oriole Beach,1420,30.3738103,-87.0913555
2299,Gillis,657,30.3738135,-93.2009889
2300,Miramar Beach,6146,30.374367,-86.3585578
2301,Pearl River,2506,30.3760264,-89.7483973
2302,Lamont,178,30.3771505,-83.8129371
2303,DeLisle,1147,30.37720176,-89.26550158
2304,Navarre Beach,638,30.37828448,-86.8871576
2305,Point Venture,800,30.3793672,-97.9961238
2306,Panorama Village,2170,30.3810404,-95.4935526
2307,Ellaville,-999,30.3813287,-83.1726391
2308,Warrington,14531,30.3840876,-87.2749721
2309,Bryceville,-999,30.3846821,-81.9387195
2310,Gautier,18572,30.385755,-88.6116855
2311,Lyons,-999,30.3863198,-96.5633033
2312,Hosford,650,30.386585,-84.7979694
2313,Brusly Landing,-999,30.3876922,-91.2373306
2314,Navasota,7049,30.3879845,-96.0877349
2315,Arlington,-999,30.3882477,-91.1717733
2316,Woodlawn Beach,1785,30.3882547,-86.9907971
2317,Montgomery,621,30.3882613,-95.6963355
2318,Suwannee,-999,30.3891098,-82.9565212
2319,Clay,-999,30.3893745,-96.3435744
2320,Lake Mystic,500,30.3905446,-84.9857128
2321,Perkins,-999,30.3932571,-93.4118277
2322,Destin,12305,30.3935337,-86.4957834
2323,Brusly,2589,30.3943588,-91.2537199
2324,Diamondhead,8425,30.3946392,-89.3639378
2325,Honey Island,-999,30.3954858,-94.4407495
2326,Biloxi,44054,30.3960318,-88.8853078
2327,Santa Rosa Beach,-999,30.3960324,-86.2288322
2328,Arnaudville,1057,30.3976973,-91.9315062
2329,Allenfarm,-999,30.3993738,-96.2438496
2330,Magnolia Springs,723,30.3996424,-87.7761001
2331,Genoa,-999,30.4004996,-82.8348524
2332,Paradise Beach,-999,30.400754,-87.4205333
2333,Navarre,31378,30.4015879,-86.863571
2334,Church Point,4560,30.4029776,-92.2151256
2335,Bayou La Batre,2558,30.403516,-88.248522
2336,Pine Log,-999,30.4038087,-85.9116019
2337,Madisonville,748,30.4043607,-90.1570232
2338,Fort Walton Beach,19507,30.4057552,-86.618842
2339,Kreole,-999,30.4060326,-88.4947361
2340,Foley,14618,30.4065868,-87.6835974
2341,Briarcliff,1438,30.407421,-98.0444588
2342,Kiln,2238,30.4090829,-89.4350519
2343,Mary Esther,3851,30.4099215,-86.6630098
2344,Capps,-999,30.4104821,-83.9109966
2345,Grosse Tete,647,30.4110276,-91.4337211
2346,Sunset,2897,30.4113095,-92.0684539
